     2.11           OBSERVATION DATA    G (GPS)             RINEX VERSION / TYPE
teqc  2017Jul18     gpsops              20171014 00:27:15UTCPGM / RUN BY / DATE
Linux 2.6.32-573.12.1.x86_64|x86_64|gcc -static|Linux 64|=+ COMMENT
BIT 2 OF LLI FLAGS DATA COLLECTED UNDER A/S CONDITION       COMMENT
CRAO                                                        MARKER NAME
12337M002                                                   MARKER NUMBER
Reilnger, Rob       MIT                                     OBSERVER / AGENCY
UC120031621         ASHTECH UZ-12       CQ00                REC # / TYPE / VERS
CR520003501         ASH701945C_M    SCIS                    ANT # / TYPE
  3783897.0146  2551404.4833  4441264.3100                  APPROX POSITION XYZ
        0.0800        0.0000        0.0000                  ANTENNA: DELTA H/E/N
     1     1                                                WAVELENGTH FACT L1/2
     7    L1    L2    P1    P2    C1    S1    S2            # / TYPES OF OBSERV
    30.0000                                                 INTERVAL
                                                            COMMENT
This data is provided as a public service by NASA/JPL.      COMMENT
No warranty is expressed or implied regarding suitability   COMMENT
for use.  For further information, contact:                 COMMENT
Dave Stowers, NASA/JPL m/s 238-600                          COMMENT
4800 Oak Grove Drive, Pasadena CA 91109 USA                 COMMENT
                                                            COMMENT
Forced Modulo Decimation to 30 seconds                      COMMENT
 SNR is mapped to RINEX snr flag value [0-9]                COMMENT
  L1 & L2: min(max(int(snr_dBHz/6), 0), 9)                  COMMENT
pseudorange smoothing corrections not applied               COMMENT
  2017    10    13     0     0    0.0000000     GPS         TIME OF FIRST OBS
                                                            END OF HEADER
 17 10 13  0  0  0.0000000  0  7G15G17G19G13G12G06G24
  -9088262.48648  -6965811.75947  22857312.0464   22857315.0784   22857312.173
        50.0004         45.0004
 -15258512.87348 -11832751.04848  22003222.3504   22003223.8184   22003221.829
        53.0004         48.0004
 -22940257.31349 -17797309.70548  20502795.7624   20502796.0424   20502796.686
        55.0004         50.0004
  -6717767.04047  -4947978.21146  23557107.0304   23557108.2664   23557106.347
        44.0004         39.0004
 -14250638.27448 -11015494.17047  22000867.1534   22000868.7274   22000866.656
        51.0004         46.0004
  -4530519.61047  -3462400.80346  23443102.8984   23443108.9384   23443102.924
        45.0004         41.0004
 -20775882.47049 -16134629.31848  20759460.3324   20759464.1174   20759459.900
        56.0004         51.0004
 17 10 13  0  0 30.0000000  0  7G15G17G19G13G12G06G24
  -9005378.26448  -6901226.66547  22873084.9114   22873086.0554   22873085.242
        50.0004         45.0004
 -15195487.46948 -11783640.33748  22015216.3744   22015217.0924   22015216.297
        53.0004         48.0004
 -22922073.74549 -17783140.68148  20506255.5654   20506255.9544   20506256.744
        55.0004         50.0004
  -6605990.21047  -4860879.37146  23578375.7754   23578378.0944   23578375.827
        44.0004         39.0004
 -14323320.57848 -11072129.72647  21987036.6064   21987037.9274   21987036.144
        51.0004         46.0004
  -4616829.83547  -3529655.51546  23426680.1694   23426684.7694   23426679.884
        45.0004         41.0004
 -20820298.16649 -16169238.95148  20751007.9384   20751012.1744   20751007.982
        56.0004         51.0004
 17 10 13  0  1  0.0000000  0  7G15G17G19G13G12G06G24
  -8922200.34048  -6836412.72747  22888913.9674   22888915.3304   22888913.519
        49.0004         45.0004
 -15132085.19648 -11734235.96848  22027281.0644   22027282.2714   22027280.734
        53.0004         48.0004
 -22903262.05549 -17768482.21648  20509835.6354   20509836.1784   20509836.908
        55.0004         51.0004
  -6494086.25047  -4773681.50846  23599670.5374   23599675.1514   23599671.094
        43.0004         39.0004
 -14395778.85748 -11128590.71247  21973248.2544   21973248.9424   21973247.455
        51.0004         46.0004
  -4702904.71147  -3596726.86046  23410301.1504   23410303.2134   23410301.044
        45.0004         41.0004
 -20864299.47749 -16203525.68848  20742635.1094   20742638.6514   20742634.636
        56.0004         51.0004
 17 10 13  0  1 30.0000000  0  7G15G17G19G13G12G06G24
  -8838727.45048  -6771368.93047  22904798.1834   22904799.2094   22904797.619
        49.0004         45.0004
 -15068303.76648 -11684536.15248  22039418.1424   22039418.7914   22039417.737
        53.0004         48.0004
 -22883819.45049 -17753332.12748  20513535.5374   20513535.4464   20513536.417
        55.0004         50.0004
  -6382053.70747  -4686383.42546  23620988.5704   23620992.3144   23620989.205
        43.0004         38.0004
 -14468008.76848 -11184873.76047  21959502.7914   21959504.6194   21959504.035
        51.0004         46.0004
  -4788736.90147  -3663609.05046  23393966.4314   23393971.6774   23393965.705
        46.0004         41.0004
 -20907879.86249 -16237484.43248  20734342.0854   20734345.4394   20734342.200
        56.0004         51.0004
 17 10 13  0  2  0.0000000  0  7G15G17G19G13G12G06G24
  -8754965.68448  -6706100.03547  22920735.5284   22920738.2634   22920735.654
        49.0004         44.0004
 -15004148.46148 -11634545.01048  22051626.7764   22051627.8694   22051626.484
        53.0004         48.0004
 -22863750.43649 -17737693.93148  20517354.0334   20517354.8344   20517355.188
        55.0004         50.0004
  -6269899.34947  -4598990.43246  23642332.3254   23642333.4724   23642332.481
        43.0004         38.0004
 -14540011.96048 -11240980.14347  21945801.7404   21945802.0914   21945801.264
        51.0004         46.0004
  -4874326.53047  -3730302.25047  23377681.3504   23377686.0834   23377680.017
        46.0004         42.0004
 -20951040.83249 -16271116.36648  20726128.9594   20726132.1654   20726128.805
        56.0004         51.0004
 17 10 13  0  2 30.0000000  0  7G15G17G19G13G12G06G24
  -8670919.06348  -6640609.16647  22936730.2934   22936732.9434   22936729.169
        49.0004         44.0004
 -14939622.57948 -11584265.09248  22063905.3934   22063905.8204   22063905.712
        52.0004         48.0004
 -22843057.35549 -17721569.44748  20521292.1434   20521292.7454   20521293.203
        55.0004         51.0004
  -6157626.94047  -4511505.43846  23663697.8874   23663699.3844   23663698.912
        43.0004         39.0004
 -14611789.55148 -11296910.73347  21932142.8904   21932142.8034   21932143.123
        51.0004         46.0004
  -4959671.42347  -3796804.74847  23361439.3994   23361444.1644   23361438.998
        47.0004         42.0004
 -20993782.76449 -16304421.77348  20717994.9674   20717998.9044   20717994.829
        56.0004         51.0004
 17 10 13  0  3  0.0000000  0  7G15G17G19G13G12G06G24
  -8586583.77148  -6574893.36047  22952779.3264   22952780.2444   22952779.015
        49.0004         44.0004
 -14874722.41448 -11533693.53548  22076255.7214   22076256.5834   22076255.330
        52.0004         48.0004
 -22821735.06949 -17704954.66548  20525349.6064   20525349.9724   20525350.743
        55.0004         51.0004
  -6045233.72847  -4423926.31146  23685086.7494   23685087.1374   23685085.138
        44.0004         39.0004
 -14683334.93648 -11352660.36147  21918527.7344   21918529.1184   21918528.553
        51.0004         46.0004
  -5044762.33147  -3863109.32946  23345245.8334   23345250.5804   23345244.920
        46.0004         41.0004
 -21036097.01149 -16337393.91648  20709942.5904   20709946.5484   20709943.023
        56.0004         51.0004
 17 10 13  0  3 30.0000000  0  7G15G17G19G13G12G06G24
  -8501967.46348  -6508958.60647  22968881.7834   22968883.3974   22968881.210
        49.0004         44.0004
 -14809454.66948 -11482835.55248  22088675.4534   22088676.7404   22088675.149
        52.0004         48.0004
 -22799789.30449 -17687854.07148  20529525.7434   20529526.2004   20529525.940
        55.0004         50.0004
  -5932725.77947  -4336257.76446  23706496.0494   23706497.2944   23706494.142
        44.0004         39.0004
 -14754652.96448 -11408232.85147  21904956.6674   21904957.9274   21904956.696
        51.0004         46.0004
  -5129600.81347  -3929217.26047  23329104.0684   23329108.4934   23329103.804
        46.0004         42.0004
 -21077986.85449 -16370035.34548  20701971.3284   20701975.6244   20701971.059
        56.0004         51.0004
 17 10 13  0  4  0.0000000  0  7G15G17G19G13G12G06G24
  -8417074.77548  -6442808.46847  22985035.8224   22985038.0144   22985034.748
        49.0004         44.0004
 -14743822.89148 -11431693.90848  22101164.9024   22101166.1844   22101164.903
        52.0004         48.0004
 -22777223.45849 -17670270.29848  20533819.8294   20533820.2054   20533820.365
        55.0004         50.0004
  -5820108.80647  -4248504.27446  23727925.5194   23727927.2294   23727924.094
        44.0004         39.0004
 -14825743.77348 -11463628.28147  21891429.0004   21891428.9974   21891428.440
        51.0004         46.0004
  -5214185.27047  -3995127.19646  23313005.0924   23313012.1274   23313005.281
        46.0004         41.0004
 -21119451.89449 -16402345.76948  20694080.9664   20694084.7904   20694080.759
        56.0004         52.0004
 17 10 13  0  4 30.0000000  0  7G15G17G19G13G12G06G24
  -8331904.99148  -6376442.41447  23001242.2234   23001244.4624   23001241.752
        49.0004         44.0004
 -14677826.06048 -11380267.81848  22113723.5404   22113724.9184   22113723.600
        53.0004         48.0004
 -22754035.02049 -17652201.37848  20538232.7724   20538232.4764   20538233.733
        55.0004         50.0004
  -5707381.95147  -4160665.17346  23749375.7184   23749377.1824   23749376.524
        44.0004         39.0004
 -14896603.17148 -11518843.38447  21877944.3894   21877944.9344   21877944.685
        51.0004         46.0004
  -5298508.94047  -4060833.94447  23296961.5624   23296966.2864   23296961.836
        46.0004         42.0004
 -21160486.67649 -16434320.92348  20686272.5774   20686276.2684   20686272.353
        56.0004         52.0004
 17 10 13  0  5  0.0000000  0  7G15G17G19G13G12G06G24
  -8246461.89748  -6309863.41247  23017502.1314   23017505.3284   23017501.686
        49.0004         44.0004
 -14611467.55948 -11328559.88048  22126351.5854   22126352.1774   22126351.630
        52.0004         48.0004
 -22730226.83349 -17633649.53248  20542763.0844   20542763.2684   20542764.263
        55.0004         50.0004
  -5594548.68447  -4072743.16646  23770847.8494   23770848.6834   23770848.366
        44.0004         39.0004
 -14967232.30948 -11573879.06347  21864503.5224   21864504.9224   21864503.257
        51.0004         46.0004
  -5382569.91447  -4126336.00947  23280964.1274   23280969.5354   23280964.324
        46.0004         42.0004
 -21201091.58549 -16465961.11948  20678545.3124   20678549.5634   20678545.028
        56.0004         52.0004
 17 10 13  0  5 30.0000000  0  7G15G17G19G13G12G06G24
  -8160749.19548  -6243074.30547  23033813.9894   23033814.9374   23033814.305
        49.0004         44.0004
 -14544749.78648 -11276572.00147  22139047.0304   22139048.0564   22139046.820
        52.0004         47.0004
 -22705800.69549 -17614616.17348  20547410.7784   20547411.6394   20547411.553
        55.0004         50.0004
  -5481612.99447  -3984741.32546  23792338.3124   23792340.7274   23792337.393
        43.0004         38.0004
 -15037631.70948 -11628735.74147  21851106.9134   21851108.3464   21851107.932
        51.0004         46.0004
  -5466365.79847  -4191631.47146  23265017.7544   23265023.7774   23265016.908
        46.0004         41.0004
 -21241265.48049 -16497265.45448  20670900.7234   20670904.4414   20670900.720
        56.0004         52.0004
 17 10 13  0  6  0.0000000  0  7G15G17G19G13G12G06G24
  -8074768.00948  -6176076.00647  23050173.6214   23050176.6184   23050173.043
        49.0004         44.0004
 -14477673.62348 -11224304.86047  22151812.0984   22151811.8844   22151812.441
        52.0004         47.0004
 -22680756.39849 -17595101.14048  20552176.9094   20552177.4284   20552178.118
        55.0004         50.0004
  -5368576.14447  -3896660.66946  23813848.1094   23813850.7844   23813847.455
        43.0004         38.0004
 -15107798.71948 -11683411.33447  21837755.4444   21837756.1554   21837755.454
        51.0004         46.0004
  -5549891.53447  -4256716.46747  23249124.4714   23249128.5734   23249124.627
        46.0004         42.0004
 -21281004.01749 -16528230.55348  20663338.5254   20663342.4114   20663338.787
        56.0004         52.0004
 17 10 13  0  6 30.0000000  0  7G15G17G19G13G12G06G24
  -7988523.81248  -6108872.72747  23066586.1564   23066587.5124   23066585.917
        49.0004         44.0004
 -14410244.01648 -11171762.29947  22164643.3344   22164643.7834   22164642.972
        52.0004         47.0004
 -22655098.20349 -17575107.73848  20557059.8714   20557059.7744   20557061.067
        55.0004         50.0004
  -5255443.48047  -3808505.36446  23835377.1724   23835379.3254   23835377.053
        43.0004         39.0004
 -15177735.67648 -11737907.65547  21824446.8604   21824447.8514   21824447.327
        51.0004         46.0004
  -5633147.04947  -4321590.88547  23233281.2854   23233286.5034   23233280.544
        47.0004         42.0004
 -21320308.21049 -16558857.20448  20655859.2484   20655863.2274   20655858.958
        56.0004         52.0004
 17 10 13  0  7  0.0000000  0  7G15G17G19G13G12G06G24
  -7902017.86548  -6041465.52947  23083048.5564   23083050.7634   23083047.609
        49.0004         44.0004
 -14342461.41448 -11118944.68247  22177540.8434   22177542.5204   22177541.382
        52.0004         47.0004
 -22628825.70649 -17554635.65748  20562058.9274   20562059.2894   20562059.964
        55.0004         50.0004
  -5142216.28547  -3720276.37546  23856923.5644   23856924.1494   23856924.168
        43.0004         39.0004
 -15247440.20048 -11792222.86047  21811182.2654   21811183.6094   21811181.771
        51.0004         46.0004
  -5716127.32047  -4386250.83547  23217489.6534   23217496.3804   23217488.517
        47.0004         42.0004
 -21359176.34649 -16589144.07148  20648463.1514   20648466.9054   20648463.254
        57.0004         52.0004
 17 10 13  0  7 30.0000000  0  7G15G17G19G13G12G06G24
  -7815252.37048  -5973856.06647  23099558.3814   23099560.0204   23099558.354
        49.0004         44.0004
 -14274327.18348 -11065853.07747  22190507.9184   22190507.0994   22190507.451
        52.0004         47.0004
 -22601939.92149 -17533685.68448  20567174.7264   20567175.7574   20567175.653
        55.0004         50.0004
  -5028897.72747  -3631976.18946  23878487.4684   23878489.0164   23878486.070
        43.0004         39.0004
 -15316911.75148 -11846356.53147  21797962.1344   21797962.9434   21797962.223
        51.0004         46.0004
  -5798828.65447  -4450693.44747  23201752.8484   23201757.2174   23201753.090
        46.0004         42.0004
 -21397604.89549 -16619088.40148  20641150.0694   20641154.1714   20641149.608
        57.0004         52.0004
 17 10 13  0  8  0.0000000  0  7G15G17G19G13G12G06G24
  -7728233.14948  -5906048.91047  23116117.7274   23116119.9004   23116117.668
        49.0004         44.0004
 -14205846.85148 -11012491.78047  22203538.5884   22203538.9504   22203537.785
        52.0004         47.0004
 -22574445.19649 -17512261.22348  20572407.2304   20572407.7894   20572407.926
        55.0004         50.0004
  -4915492.40447  -3543608.40746  23900067.5754   23900069.4474   23900067.594
        43.0004         39.0004
 -15386152.17248 -11900310.07547  21784786.4344   21784787.4954   21784785.729
        51.0004         46.0004
  -5881250.82947  -4514918.50147  23186068.0464   23186073.1874   23186069.169
        47.0004         42.0004
 -21435595.70749 -16648691.63048  20633920.9954   20633924.9494   20633920.493
        57.0004         52.0004
 17 10 13  0  8 30.0000000  0  7G15G17G19G13G12G06G24
  -7640959.81848  -5838043.73447  23132726.4624   23132727.5374   23132726.032
        49.0004         44.0004
 -14137019.17148 -10958859.81847  22216636.1264   22216637.3804   22216635.676
        52.0004         47.0004
 -22546339.85949 -17490360.95748  20577755.2464   20577756.1384   20577756.088
        55.0004         50.0004
  -4801999.99947  -3455172.78646  23921662.7984   23921665.4234   23921663.223
        43.0004         38.0004
 -15455158.00748 -11954080.85647  21771654.2664   21771656.4624   21771654.785
        51.0004         46.0004
  -5963387.46147  -4578921.07447  23170438.1054   23170443.1844   23170437.562
        47.0004         42.0004
 -21473143.45749 -16677949.61648  20626775.6924   20626779.7214   20626775.411
        57.0004         52.0004
 17 10 13  0  9  0.0000000  0  7G15G17G19G13G12G06G24
  -7553435.66248  -5769843.10147  23149380.6664   23149382.6774   23149380.364
        49.0004         44.0004
 -14067846.70248 -10904959.20847  22229798.8384   22229799.5854   22229799.200
        52.0004         47.0004
 -22517625.73449 -17467986.31448  20583219.3644   20583219.9484   20583220.555
        55.0004         50.0004
  -4688424.49647  -3366672.40146  23943275.8884   23943279.3334   23943277.198
        43.0004         38.0004
 -15523929.12048 -12007668.74547  21758568.1374   21758569.8954   21758568.133
        51.0004         46.0004
  -6045235.88247  -4642699.06646  23154863.4644   23154867.2524   23154862.407
        46.0004         41.0004
 -21510246.87149 -16706861.37248  20619715.0204   20619719.4044   20619714.792
        57.0004         52.0004
 17 10 13  0  9 30.0000000  0  7G15G17G19G13G12G06G24
  -7465665.23248  -5701450.56147  23166083.1174   23166084.5554   23166084.158
        49.0004         44.0004
 -13998333.42848 -10850793.01647  22243026.1684   22243027.8854   22243026.635
        52.0004         47.0004
 -22488305.81049 -17445139.61648  20588798.9864   20588799.2014   20588799.856
        55.0004         50.0004
  -4574769.67947  -3278110.22746  23964904.8964   23964906.8754   23964905.942
        42.0004         38.0004
 -15592466.71248 -12061074.65247  21745525.7404   21745526.2984   21745525.845
        51.0004         46.0004
  -6126794.61547  -4706251.32347  23139343.3574   23139347.3814   23139343.014
        46.0004         42.0004
 -21546905.98849 -16735426.91548  20612739.1954   20612743.0954   20612738.782
        57.0004         52.0004
 17 10 13  0 10  0.0000000  0  7G15G17G19G13G12G06G24
  -7377650.81948  -5632867.92047  23182831.6754   23182832.8834   23182831.532
        49.0004         44.0004
 -13928481.15748 -10796362.66647  22256318.8674   22256320.9434   22256318.530
        52.0004         47.0004
 -22458381.57849 -17421822.02448  20594493.0334   20594493.5704   20594493.942
        55.0004         50.0004
  -4461038.43947  -3189488.46846  23986547.9284   23986549.6494   23986547.943
        42.0004         38.0004
 -15660769.74848 -12114297.78947  21732528.8224   21732528.5504   21732528.278
        51.0004         46.0004
  -6208060.18947  -4769575.10447  23123878.0044   23123883.9284   23123878.267
        47.0004         42.0004
 -21583119.22549 -16763645.03548  20605848.2874   20605852.0354   20605848.226
        57.0004         52.0004
 17 10 13  0 10 30.0000000  0  7G15G17G19G13G12G06G24
  -7289394.55948  -5564096.81947  23199625.9164   23199627.4564   23199625.502
        49.0004         44.0004
 -13858291.03548 -10741669.07047  22269675.9614   22269676.6974   22269675.548
        52.0004         47.0004
 -22427853.67849 -17398034.04748  20600302.7254   20600303.1344   20600303.838
        55.0004         50.0004
  -4347232.51447  -3100808.51946  24008204.0124   24008206.3744   24008203.429
        42.0004         37.0004
 -15728836.79248 -12167337.04247  21719575.5914   21719575.8194   21719575.011
        51.0004         46.0004
  -6289028.27447  -4832667.11947  23108471.5794   23108476.0754   23108471.540
        47.0004         42.0004
 -21618883.33249 -16791513.17448  20599042.3854   20599046.3104   20599041.867
        57.0004         52.0004
 17 10 13  0 11  0.0000000  0  7G15G17G19G13G12G06G24
  -7200899.94448  -5495139.99647  23216466.4304   23216468.4614   23216466.021
        49.0004         44.0004
 -13787766.05448 -10686714.52947  22283095.9594   22283097.1494   22283095.379
        52.0004         47.0004
 -22396724.51149 -17373777.54848  20606226.4274   20606226.8694   20606227.658
        55.0004         50.0004
  -4233355.20147  -3012072.96846  24029874.7314   24029877.1214   24029875.035
        42.0004         37.0004
 -15796668.23548 -12220192.72347  21706667.3024   21706668.8584   21706667.272
        51.0004         47.0004
  -6369696.78947  -4895525.68647  23093120.0994   23093123.8784   23093119.547
        47.0004         42.0004
 -21654198.34449 -16819031.36948  20592322.3464   20592326.0904   20592322.041
        57.0004         52.0004
 17 10 13  0 11 30.0000000  0  7G15G17G19G13G12G06G24
  -7112168.74148  -5425998.81047  23233351.3054   23233353.6364   23233350.805
        49.0004         44.0004
 -13716907.77948 -10631500.28947  22296580.2894   22296581.1524   22296579.828
        51.0004         47.0004
 -22364994.52049 -17349052.87448  20612264.2264   20612264.5494   20612264.760
        55.0004         50.0004
  -4119408.93447  -2923283.69146  24051558.0204   24051559.7684   24051558.597
        42.0004         38.0004
 -15864262.68348 -12272863.71347  21693805.1094   21693805.1694   21693805.568
        51.0004         47.0004
  -6450061.69247  -4958147.69047  23077827.0884   23077831.5454   23077825.901
        47.0004         42.0004
 -21689061.11949 -16846197.16948  20585688.3134   20585691.7484   20585688.147
        57.0004         52.0004
 17 10 13  0 12  0.0000000  0  7G15G17G19G13G12G06G24
  -7023206.28248  -5356677.42247  23250280.3544   23250282.4554   23250280.422
        49.0004         44.0004
 -13645720.25548 -10576029.48547  22310126.8594   22310128.3444   22310127.114
        52.0004         47.0004
 -22332667.56349 -17323863.03348  20618415.5284   20618416.4024   20618416.485
        55.0004         50.0004
  -4005398.26647  -2834444.21746  24073253.4794   24073254.8744   24073253.124
        42.0004         38.0004
 -15931621.37948 -12325350.99747  21680987.3024   21680987.6644   21680987.257
        51.0004         47.0004
  -6530121.94547  -5020532.30147  23062591.9774   23062596.3284   23062591.869
        47.0004         42.0004
 -21723472.47049 -16873011.21048  20579139.8074   20579143.4374   20579139.338
        57.0004         52.0004
 17 10 13  0 12 30.0000000  0  7G15G17G19G13G12G06G24
  -6934013.40748  -5287176.48347  23267253.0064   23267256.4014   23267252.561
        49.0004         44.0004
 -13574204.14148 -10520302.64047  22323736.2804   22323737.2324   22323736.335
        52.0004         47.0004
 -22299743.68949 -17298208.05848  20624681.1724   20624682.1134   20624682.160
        55.0004         50.0004
  -3891324.76847  -2745555.76546  24094961.1494   24094961.9564   24094959.694
        42.0004         38.0004
 -15998742.86448 -12377653.44547  21668214.1394   21668214.5534   21668214.036
        51.0004         47.0004
  -6609872.80547  -5082675.80547  23047415.4464   23047421.4084   23047415.005
        47.0004         43.0004
 -21757428.81549 -16899470.70748  20572677.8064   20572681.9204   20572677.783
        57.0004         52.0004
 17 10 13  0 13  0.0000000  0  7G15G17G19G13G12G06G24
  -6844593.40548  -5217498.58347  23284268.9394   23284271.2764   23284269.036
        48.0004         44.0004
 -13502361.88648 -10464321.66847  22337407.4654   22337408.1324   22337406.837
        52.0004         47.0004
 -22266224.96449 -17272089.56548  20631059.0094   20631060.1504   20631059.775
        55.0004         50.0004
  -3777191.36047  -2656620.63046  24116678.4844   24116680.4294   24116679.879
        42.0004         38.0004
 -16065626.01448 -12429770.17547  21655486.4414   21655487.5264   21655486.864
        51.0004         47.0004
  -6689311.42847  -5144576.02347  23032298.4924   23032303.3644   23032298.171
        47.0004         43.0004
 -21790929.16449 -16925574.87848  20566302.9664   20566307.2204   20566303.061
        57.0004         52.0004
 17 10 13  0 13 30.0000000  0  7G15G17G19G13G12G06G24
  -6754949.99948  -5147646.58147  23301326.8774   23301328.3604   23301327.353
        49.0004         44.0004
 -13430196.14548 -10408088.60847  22351140.3244   22351139.9104   22351140.355
        51.0004         47.0004
 -22232113.33549 -17245509.08248  20637550.6634   20637550.8214   20637551.658
        55.0004         50.0004
  -3663001.04747  -2567641.18846  24138409.5554   24138409.0754   24138410.061
        42.0004         38.0004
 -16132271.14448 -12481701.45847  21642804.6324   21642805.1764   21642804.726
        51.0004         47.0004
  -6768435.11248  -5206230.82447  23017243.2184   23017248.1964   23017243.231
        48.0004         43.0004
 -21823972.02349 -16951322.56548  20560015.0274   20560018.7344   20560015.104
        57.0004         52.0004
 17 10 13  0 14  0.0000000  0  7G15G17G19G13G12G06G24
  -6665085.54648  -5077622.35147  23318428.8564   23318428.8914   23318428.540
        48.0004         44.0004
 -13357709.50148 -10351605.51047  22364932.9314   22364934.7664   22364932.623
        51.0004         47.0004
 -22197410.77549 -17218468.11448  20644154.4144   20644154.1474   20644155.591
        55.0004         50.0004
  -3548757.09247  -2478619.93946  24160149.3974   24160151.4734   24160148.381
        42.0004         38.0004
 -16198678.19948 -12533447.21247  21630168.2264   21630168.6364   21630167.997
        52.0004         47.0004
  -6847241.13647  -5267638.09747  23002246.4034   23002251.4594   23002245.587
        47.0004         43.0004
 -21856556.72749 -16976713.24748  20553814.7704   20553818.5294   20553814.754
        57.0004         52.0004
 17 10 13  0 14 30.0000000  0  7G15G17G19G13G12G06G24
  -6575002.52248  -5007427.79947  23335570.8274   23335572.2614   23335570.052
        48.0004         44.0004
 -13284903.11748 -10294873.27447  22378787.7554   22378789.3144   22378787.496
        51.0004         47.0004
 -22162118.56849 -17190967.68848  20650870.3514   20650870.4994   20650871.060
        55.0004         50.0004
  -3434461.44547  -2389558.38846  24181899.0024   24181900.8114   24181898.748
        42.0004         37.0004
 -16264845.69348 -12585006.29647  21617576.2234   21617578.0124   21617576.415
        52.0004         47.0004
  -6925725.54147  -5328794.77147  22987311.6854   22987315.4024   22987312.328
        47.0004         43.0004
 -21888680.58349 -17001744.82648  20547701.6884   20547705.5674   20547701.372
        57.0004         52.0004
 17 10 13  0 15  0.0000000  0  7G15G17G19G13G12G06G24
  -6484701.58848  -4937063.44647  23352754.9934   23352754.8194   23352755.241
        48.0004         44.0004
 -13211777.36148 -10237892.16747  22392703.1264   22392704.8504   22392703.133
        51.0004         47.0004
 -22126235.88449 -17163007.16048  20657698.3354   20657698.8654   20657699.410
        55.0004         50.0004
  -3320114.41747  -2300456.82346  24203656.7994   24203658.0084   24203657.649
        42.0004         37.0004
 -16330771.39848 -12636376.95947  21605030.4214   21605033.2074   21605030.661
        52.0004         47.0004
  -7003883.08947  -5389696.74347  22972437.2604   22972442.1974   22972438.196
        47.0004         42.0004
 -21920339.84549 -17026414.38648  20541676.7734   20541681.2734   20541676.596
        57.0004         52.0004
 17 10 13  0 15 30.0000000  0  8G15G17G02G19G13G12G06G24
  -6394190.25648  -4866535.16047  23369979.2034   23369979.3244   23369977.385
        48.0004         43.0004
 -13138338.91048 -10180667.39847  22406677.9094   22406679.3664   22406677.991
        52.0004         47.0004
                                                                  24306837.508

 -22089769.29149 -17134591.62948  20664637.8314   20664638.2414   20664638.995
        55.0004         50.0004
  -3205723.66146  -2211321.17246  24225427.0584   24225426.7014   24225425.500
        41.0004         37.0004
 -16396459.13248 -12687562.20547  21592530.7564   21592532.6994   21592531.107
        52.0004         47.0004
  -7081715.40547  -5450345.30547  22957626.0824   22957631.8274   22957626.384
        47.0004         43.0004
 -21951537.64849 -17050724.36848  20535740.6604   20535744.3424   20535740.255
        57.0004         52.0004
 17 10 13  0 16  0.0000000  0  8G15G17G02G19G13G12G06G24
  -6303463.86948  -4795839.27947  23387243.2964   23387244.0284   23387242.850
        48.0004         43.0004
 -13064582.01648 -10123194.49347  22420713.2934   22420714.8654   22420713.545
        51.0004         47.0004
   -985842.53249   -699044.12646  24289152.7764   24289151.6514   24289153.335
        55.0004         37.0004
 -22052713.03649 -17105716.61748  20671689.8404   20671689.9244   20671690.772
        55.0004         50.0004
  -3091284.61446  -2122147.89446  24247202.3194   24247204.6774   24247201.762
        41.0004         37.0004
 -16461900.23348 -12738555.28047  21580078.8524   21580079.3454   21580078.255
        52.0004         47.0004
  -7159211.77947  -5510732.06247  22942880.1824   22942884.8444   22942879.911
        47.0004         43.0004
 -21982265.10449 -17074667.84448  20529893.1824   20529897.1674   20529892.670
        57.0004         52.0004
 17 10 13  0 16 30.0000000  0  8G15G17G02G19G13G12G06G24
  -6212548.17948  -4724995.86347  23404544.6314   23404545.9634   23404543.832
        48.0004         44.0004
 -12990532.34248 -10065493.45247  22434804.5124   22434805.9054   22434804.178
        51.0004         47.0004
  -1078757.97848   -771445.75546  24271471.8524   24271471.1264   24271471.551
        49.0004         38.0004
 -22015091.84749 -17076401.40648  20678848.6004   20678849.0694   20678849.359
        55.0004         50.0004
  -2976822.99446  -2032957.02546  24268985.3224   24268986.9344   24268985.302
        41.0004         37.0004
 -16527117.85748 -12789374.20947  21567668.0484   21567668.0484   21567667.976
        52.0004         47.0004
  -7236392.26948  -5570872.68947  22928193.3304   22928197.8554   22928193.396
        48.0004         44.0004
 -22012543.39649 -17098261.32448  20524131.2564   20524135.1574   20524130.844
        57.0004         52.0004
 17 10 13  0 17  0.0000000  0  8G15G17G02G19G13G12G06G24
  -6121416.77748  -4653984.39147  23421885.6884   23421887.5804   23421884.289
        48.0004         43.0004
 -12916162.98648 -10007543.29447  22448956.4264   22448957.9284   22448955.947
        51.0004         46.0004
  -1171627.76847   -843811.83946  24253797.9914   24253799.2094   24253798.360
        45.0004         38.0004
 -21976878.41849 -17046624.70448  20686120.5714   20686120.4874   20686121.558
        55.0004         50.0004
  -2862312.07847  -1943727.73646  24290775.8264   24290778.1404   24290776.381
        42.0004         37.0004
 -16592082.37748 -12839995.90947  21555305.7874   21555306.3104   21555305.615
        52.0004         47.0004
  -7313224.41248  -5630741.87447  22913571.8204   22913578.2474   22913572.596
        48.0004         43.0004
 -22042341.77149 -17121480.83448  20518460.8534   20518464.6524   20518460.953
        57.0004         52.0004
 17 10 13  0 17 30.0000000  0  8G15G17G02G19G13G12G06G24
  -6030085.24848  -4582816.99647  23439265.6344   23439267.0014   23439265.758
        48.0004         43.0004
 -12841488.48948  -9949355.36847  22463167.0024   22463168.1644   22463167.279
        51.0004         47.0004
  -1264461.72647   -916150.01346  24236132.3814   24236132.2304   24236133.377
        43.0004         38.0004
 -21938087.13349 -17016397.72248  20693502.7824   20693501.9394   20693503.464
        55.0004         50.0004
  -2747767.24547  -1854472.02846  24312573.6874   24312575.0684   24312572.590
        42.0004         37.0004
 -16656805.24648 -12890429.30747  21542988.6684   21542989.6844   21542988.604
        52.0004         47.0004
  -7389717.74748  -5690347.05047  22899016.1834   22899020.9014   22899015.652
        48.0004         43.0004
 -22071671.85049 -17144335.44748  20512879.5404   20512883.7224   20512879.517
        57.0004         52.0004
 17 10 13  0 18  0.0000000  0  8G15G17G02G19G13G12G06G24
  -5938556.59248  -4511495.99047  23456683.1314   23456683.9004   23456683.126
        48.0004         43.0004
 -12766511.64748  -9890931.84447  22477434.5714   22477435.3274   22477434.061
        51.0004         47.0004
  -1357257.70847   -988458.57946  24218474.2664   24218472.7234   24218472.672
        43.0004         38.0004
 -21898720.29649 -16985722.25348  20700993.7694   20700993.8844   20700994.864
        55.0004         50.0004
  -2633191.90547  -1765192.54946  24334376.7624   24334378.9264   24334375.913
        42.0004         37.0004
 -16721286.70548 -12940674.60147  21530718.2104   21530719.4524   21530718.383
        52.0004         47.0004
  -7465869.75148  -5749686.26647  22884525.1604   22884529.8244   22884525.124
        48.0004         43.0004
 -22100531.87649 -17166823.78548  20507387.7534   20507392.0874   20507387.418
        57.0004         52.0004
 17 10 13  0 18 30.0000000  0  8G15G17G02G19G13G12G06G24
  -5846831.65447  -4440022.02847  23474135.8494   23474138.5704   23474136.721
        47.0004         42.0004
 -12691232.34648  -9832272.64447  22491759.5394   22491760.8324   22491759.273
        51.0004         46.0004
  -1450010.61147  -1060733.59346  24200824.1824   24200824.1314   24200824.969
        43.0004         38.0004
 -21858777.42449 -16954597.93848  20708594.4174   20708594.6074   20708595.218
        55.0004         50.0004
  -2518586.26747  -1675889.44546  24356185.1864   24356185.1284   24356184.257
        42.0004         37.0004
 -16785524.01548 -12990729.65447  21518494.6364   21518495.7654   21518494.309
        52.0004         47.0004
  -7541675.10348  -5808755.34147  22870100.7494   22870104.2864   22870099.822
        48.0004         43.0004
 -22128918.43149 -17188943.18048  20501985.7194   20501989.9544   20501985.492
        57.0004         52.0004
 17 10 13  0 19  0.0000000  0  8G15G17G02G19G13G12G06G24
  -5754913.53847  -4368397.53047  23491627.8014   23491630.1644   23491627.344
        47.0004         42.0004
 -12615653.01248  -9773379.66447  22506142.1084   22506142.9224   22506141.801
        51.0004         46.0004
  -1542718.13347  -1132973.24746  24183182.1594   24183182.6344   24183182.536
        42.0004         38.0004
 -21818260.68049 -16923026.45548  20716304.7434   20716304.8014   20716305.713
        55.0004         50.0004
  -2403953.61946  -1586565.29446  24377996.7484   24378000.3404   24377997.469
        41.0004         37.0004
 -16849517.08448 -13040594.39547  21506317.1014   21506318.6164   21506316.945
        52.0004         47.0004
  -7617130.99448  -5867552.12147  22855741.2534   22855745.3984   22855740.690
        48.0004         43.0004
 -22156830.18449 -17210692.60448  20496674.3654   20496678.4784   20496674.323
        57.0004         52.0004
 17 10 13  0 19 30.0000000  0  8G15G17G02G19G13G12G06G24
  -5662809.62247  -4296628.24047  23509154.7894   23509158.2704   23509154.291
        47.0004         43.0004
 -12539780.01148  -9714257.83747  22520580.4134   22520580.4404   22520579.791
        51.0004         46.0004
  -1635381.83947  -1205178.73146  24165548.8944   24165548.2044   24165550.969
        43.0004         38.0004
 -21777176.33949 -16891012.67948  20724122.5374   20724122.6124   20724123.529
        55.0004         50.0004
  -2289300.84646  -1497225.47346  24399816.5264   24399817.0154   24399816.402
        41.0004         37.0004
 -16913269.35848 -13090271.50647  21494184.8064   21494185.9114   21494186.049
        52.0004         47.0004
  -7692238.79248  -5926077.66247  22841447.3414   22841453.9594   22841447.695
        48.0004         44.0004
 -22184270.07149 -17232074.33248  20491452.6694   20491456.8004   20491452.726
        57.0004         52.0004
 17 10 13  0 20  0.0000000  0  8G15G17G02G19G13G12G06G24
  -5570517.02847  -4224711.93447  23526719.5834   23526719.8784   23526718.654
        47.0004         43.0004
 -12463610.26348  -9654904.78247  22535074.7564   22535075.8924   22535074.224
        51.0004         46.0004
  -1727993.87847  -1277343.94746  24147927.4094   24147925.0834   24147927.334
        43.0004         38.0004
 -21735521.08349 -16858554.02948  20732049.0354   20732049.1604   20732050.184
        55.0004         50.0004
  -2174625.21346  -1407867.84546  24421637.2704   24421638.3484   24421637.226
        41.0004         37.0004
 -16976775.09848 -13139756.50047  21482100.2444   21482101.7194   21482099.920
        52.0004         47.0004
  -7766990.17748  -5984325.47147  22827224.2434   22827229.1854   22827224.425
        48.0004         44.0004
 -22211231.48749 -17253083.23448  20486322.2224   20486325.9774   20486322.044
        57.0004         52.0004
 17 10 13  0 20 30.0000000  0  8G15G17G02G19G13G12G06G24
  -5478041.14247  -4152652.82147  23544315.7944   23544319.0844   23544315.718
        47.0004         43.0004
 -12387148.60448  -9595324.26647  22549625.6674   22549626.2494   22549625.181
        51.0004         47.0004
  -1820553.97847  -1349468.69946  24130312.3904   24130309.9884   24130312.699
        43.0004         38.0004
 -21693299.45049 -16825654.05348  20740083.5224   20740083.7834   20740083.887
        54.0004         50.0004
  -2059932.13146  -1318496.59746  24443463.2994   24443463.9654   24443462.053
        41.0004         36.0004
 -17040036.79048 -13189051.32647  21470061.9264   21470063.1524   21470062.184
        52.0004         47.0004
  -7841384.57748  -6042295.12447  22813066.4694   22813070.6584   22813067.588
        49.0004         44.0004
 -22237715.57549 -17273720.19348  20481282.6394   20481286.5174   20481282.137
        57.0004         52.0004
 17 10 13  0 21  0.0000000  0  8G15G17G02G19G13G12G06G24
  -5385386.62347  -4080454.52047  23561947.8094   23561949.2074   23561947.703
        47.0004         42.0004
 -12310398.89748  -9535519.30647  22564230.7404   22564230.5664   22564230.837
        51.0004         47.0004
  -1913060.97147  -1421552.05746  24112708.1664   24112707.2874   24112708.360
        43.0004         39.0004
 -21650515.04349 -16792315.55448  20748224.8144   20748225.8014   20748225.836
        54.0004         50.0004
  -1945226.06546  -1229115.23146  24465291.3494   24465293.1364   24465290.621
        41.0004         36.0004
 -17103055.15548 -13238156.52647  21458070.1644   21458071.9044   21458070.297
        52.0004         47.0004
  -7915420.63948  -6099985.54247  22798977.4174   22798982.0464   22798976.386
        48.0004         43.0004
 -22263722.31349 -17293985.18848  20476333.6124   20476337.4374   20476333.162
        57.0004         52.0004
 17 10 13  0 21 30.0000000  0  9G15G17G25G02G19G13G12G06G24
  -5292552.94247  -4008116.59147  23579612.6184   23579614.4854   23579610.162
        47.0004         42.0004
 -12233359.46448  -9475488.56947  22578890.9434   22578890.8214   22578891.072
        51.0004         47.0004
                                                                  24813028.645

  -2005508.60947  -1493589.18746  24095116.6794   24095114.1864   24095117.711
        43.0004         39.0004
 -21607165.80449 -16758536.92448  20756474.4464   20756474.9564   20756474.790
        54.0004         50.0004
  -1830506.51946  -1139723.39146  24487121.6424   24487124.7564   24487121.820
        41.0004         36.0004
 -17165826.00648 -13287068.85947  21446125.0964   21446126.7954   21446124.409
        52.0004         47.0004
  -7989091.81948  -6157391.63847  22784959.1544   22784964.1694   22784959.453
        48.0004         44.0004
 -22289246.90849 -17313874.48748  20471476.5804   20471480.1914   20471476.597
        57.0004         52.0004
 17 10 13  0 22  0.0000000  0  9G15G17G25G02G19G13G12G06G24
  -5199546.23547  -3935643.85346  23597308.8454   23597313.5864   23597308.272
        46.0004         41.0004
 -12156036.42148  -9415236.84947  22593604.1224   22593604.6214   22593603.789
        51.0004         46.0004
   -739110.29347   -512953.09846  24795361.8884   24795367.9124   24795363.038
        46.0004         38.0004
  -2097897.58547  -1565580.61446  24077534.1174   24077535.0014   24077535.660
        44.0004         39.0004
 -21563257.63449 -16724322.76148  20764829.8094   20764829.9974   20764830.915
        54.0004         50.0004
  -1715778.96846  -1050325.30446  24508953.6384   24508955.3384   24508954.377
        41.0004         37.0004
 -17228352.01848 -13335790.41447  21434226.6594   21434228.1494   21434226.984
        52.0004         47.0004
  -8062398.58248  -6214513.75947  22771009.1274   22771014.8474   22771008.227
        48.0004         44.0004
 -22314291.47649 -17333389.73848  20466710.2544   20466714.7464   20466709.888
        57.0004         52.0004
 17 10 13  0 22 30.0000000  0  9G15G17G25G02G19G13G12G06G24
  -5106366.33747  -3863036.13147  23615043.4774   23615045.3784   23615041.860
        46.0004         42.0004
 -12078429.02648  -9354763.54747  22608372.7364   22608373.3724   22608372.474
        51.0004         46.0004
   -831878.16947   -585239.70146  24777706.9054   24777713.9124   24777707.883
        44.0004         38.0004
  -2190222.54347  -1637522.15046  24059965.7064   24059969.2384   24059967.777
        44.0004         40.0004
 -21518789.45049 -16689672.23148  20773291.9844   20773292.0764   20773292.876
        54.0004         50.0004
  -1601043.25746   -960920.86346  24530787.7004   24530790.3864   24530788.046
        41.0004         36.0004
 -17290630.23948 -13384318.89347  21422375.8674   21422377.1934   21422375.899
        52.0004         47.0004
  -8135335.05648  -6271347.36447  22757129.6214   22757136.0224   22757129.533
        48.0004         44.0004
 -22338851.22849 -17352527.21448  20462037.3124   20462041.2364   20462037.176
        57.0004         52.0004
 17 10 13  0 23  0.0000000  0  9G15G17G25G02G19G13G12G06G24
  -5013017.75147  -3790296.97647  23632805.1574   23632807.6944   23632806.416
        46.0004         42.0004
 -12000541.18248  -9294071.72547  22623193.9034   22623193.9454   22623193.373
        50.0004         46.0004
   -924583.27647   -657477.43246  24760065.5224   24760071.7874   24760064.949
        42.0004         37.0004
  -2282482.27547  -1709412.85346  24042410.4934   24042412.4234   24042410.699
        45.0004         40.0004
 -21473765.00549 -16654588.24548  20781859.8804   20781859.9024   20781860.807
        54.0004         50.0004
  -1486304.21846   -871513.82745  24552620.0954   24552623.5834   24552621.015
        40.0004         35.0004
 -17352662.08648 -13432655.39747  21410571.3794   21410572.9054   21410571.632
        52.0004         47.0004
  -8207899.96448  -6327891.42847  22743320.8374   22743325.4414   22743320.870
        48.0004         44.0004
 -22362926.86249 -17371287.44848  20457455.9364   20457459.8674   20457455.813
        57.0004         52.0004
 17 10 13  0 23 30.0000000  0  9G15G17G25G02G19G13G12G06G24
  -4919503.86547  -3717429.04047  23650601.2614   23650601.6444   23650601.944
        46.0004         42.0004
 -11922375.48148  -9233163.37647  22638067.7094   22638068.6874   22638067.178
        50.0004         46.0004
  -1017225.47747   -729666.14546  24742436.5664   24742441.1874   24742437.658
        42.0004         37.0004
  -2374674.47047  -1781250.93146  24024865.9354   24024866.7654   24024867.684
        45.0004         40.0004
 -21428186.99849 -16619072.91448  20790532.2914   20790533.0694   20790533.124
        54.0004         49.0004
  -1371564.47246   -782106.22946  24574455.4014   24574455.5254   24574456.351
        40.0004         36.0004
 -17414447.16748 -13480799.63547  21398814.2334   21398814.7884   21398813.934
        52.0004         47.0004
  -8280090.87848  -6384144.06247  22729584.6954   22729588.4344   22729583.347
        48.0004         44.0004
 -22386517.77449 -17389669.98048  20452966.3344   20452970.3914   20452966.143
        57.0004         52.0004
 17 10 13  0 24  0.0000000  0  9G15G17G25G02G19G13G12G06G24
  -4825826.29647  -3644433.55047  23668427.8784   23668430.3214   23668428.031
        47.0004         42.0004
 -11843932.14748  -9172038.69747  22652995.1344   22652997.0324   22652994.605
        50.0004         46.0004
  -1109802.70647   -801804.19746  24724821.0454   24724825.7574   24724822.035
        42.0004         37.0004
  -2466794.84447  -1853033.05146  24007334.6994   24007336.4924   24007335.253
        44.0004         39.0004
 -21382055.79449 -16583126.51248  20799310.8324   20799311.3484   20799311.741
        54.0004         49.0004
  -1256825.19846   -692698.99645  24596288.8464   24596288.0364   24596289.164
        40.0004         35.0004
 -17475983.25748 -13528749.84147  21387104.6964   21387105.0074   21387104.684
        52.0004         47.0004
  -8351903.20348  -6440101.68147  22715918.4774   22715921.8934   22715918.101
        48.0004         44.0004
 -22409620.70749 -17407672.26248  20448570.4044   20448574.4294   20448570.174
        57.0004         52.0004
 17 10 13  0 24 30.0000000  0  9G15G17G25G02G19G13G12G06G24
  -4731990.59347  -3571314.84647  23686284.3814   23686285.7644   23686283.911
        47.0004         42.0004
 -11765216.69148  -9110701.98847  22667973.5314   22667975.3024   22667973.606
        50.0004         45.0004
  -1202317.44547   -873893.58946  24707216.4884   24707222.8744   24707217.930
        42.0004         38.0004
  -2558844.00347  -1924759.69346  23989820.4924   23989819.4254   23989820.320
        44.0004         40.0004
 -21335376.47049 -16546753.00948  20808193.5694   20808194.0264   20808194.380
        54.0004         49.0004
  -1142092.65946   -603297.01645  24618120.0414   24618121.4034   24618121.085
        40.0004         35.0004
 -17537272.85548 -13576507.97348  21375441.7784   21375442.8744   21375441.105
        52.0004         48.0004
  -8423337.08648  -6495764.45547  22702323.8674   22702329.6204   22702324.078
        49.0004         44.0004
 -22432237.32349 -17425295.61848  20444266.5884   20444270.1424   20444266.202
        57.0004         52.0004
 17 10 13  0 25  0.0000000  0  9G15G17G25G02G19G13G12G06G24
  -4637995.98347  -3498072.28747  23704171.0724   23704172.7814   23704170.533
        47.0004         42.0004
 -11686227.93648  -9049152.29447  22683005.4684   22683006.6054   22683005.693
        50.0004         46.0004
  -1294765.52347   -945931.03746  24689624.8444   24689629.8634   24689625.881
        43.0004         38.0004
  -2650815.33947  -1996425.65346  23972318.6114   23972316.6294   23972318.205
        44.0004         40.0004
 -21288147.32349 -16509951.06948  20817181.3584   20817181.9794   20817182.316
        54.0004         49.0004
  -1027365.53846   -513899.22045  24639955.3164   24639955.1844   24639952.725
        39.0004         35.0004
 -17598312.23848 -13624071.13448  21363825.8564   21363827.3054   21363826.152
        52.0004         48.0004
  -8494385.99648  -6551127.20047  22688804.0204   22688809.3384   22688804.880
        49.0004         44.0004
 -22454363.02149 -17442536.42948  20440055.7664   20440060.0994   20440055.564
        57.0004         52.0004
 17 10 13  0 25 30.0000000  0  9G15G17G25G02G19G13G12G06G24
  -4543870.72847  -3424727.95347  23722081.5904   23722085.1164   23722081.628
        47.0004         42.0004
 -11606993.34348  -8987411.05547  22698082.7174   22698084.0714   22698083.186
        50.0004         45.0004
  -1387171.54747  -1017935.70846  24672039.9134   24672043.3374   24672040.215
        43.0004         38.0004
  -2742731.33647  -2068048.50846  23954827.3344   23954825.2844   23954828.231
        44.0004         40.0004
 -21240396.15349 -16472742.36648  20826268.0064   20826268.3784   20826268.996
        54.0004         50.0004
   -912671.80546   -424527.47745  24661777.6184   24661779.9194   24661777.385
        40.0004         35.0004
 -17659125.85348 -13671458.38348  21352253.7024   21352255.0474   21352253.434
        52.0004         48.0004
  -8565072.14548  -6606207.29647  22675353.3364   22675359.0224   22675354.096
        49.0004         45.0004
 -22476021.40349 -17459413.08748  20435934.2854   20435938.6404   20435933.536
        57.0004         52.0004
 17 10 13  0 26  0.0000000  0  9G15G17G25G02G19G13G12G06G24
  -4449568.98547  -3351246.08447  23740028.0334   23740030.5804   23740027.509
        47.0004         42.0004
 -11527466.09248  -8925441.76547  22713216.8644   22713217.3154   22713217.013
        50.0004         45.0004
  -1479486.47647  -1089869.37446  24654471.9154   24654477.4814   24654473.909
        43.0004         38.0004
  -2834540.71747  -2139588.27046  23937357.3284   23937356.5004   23937357.655
        44.0004         40.0004
 -21192076.03849 -16435090.32848  20835462.8444   20835463.6124   20835464.086
        54.0004         49.0004
   -797965.68946   -335146.09046  24683605.5654   24683609.1694   24683604.807
        40.0004         36.0004
 -17719665.03748 -13718631.79347  21340733.2604   21340734.1184   21340733.382
        52.0004         47.0004
  -8635344.19248  -6660964.71847  22661980.7914   22661986.3534   22661981.031
        49.0004         45.0004
 -22497162.77349 -17475886.88448  20431911.4464   20431915.4114   20431911.426
        57.0004         52.0004
 17 10 13  0 26 30.0000000  0  9G15G17G25G02G19G13G12G06G24
  -4355117.65847  -3277647.65747  23758001.4184   23758002.9224   23758001.011
        47.0004         42.0004
 -11447672.95448  -8863265.29647  22728401.2424   22728401.1824   22728400.875
        50.0004         45.0004
  -1571733.90047  -1161750.47046  24636917.0914   24636924.3214   24636918.120
        43.0004         38.0004
  -2926265.16447  -2211061.85546  23919900.6644   23919901.2494   23919901.866
        45.0004         40.0004
 -21143213.43849 -16397015.57248  20844761.2034   20844761.8714   20844762.252
        54.0004         49.0004
   -683273.89346   -245775.86746  24705431.2774   24705435.6834   24705431.362
        41.0004         36.0004
 -17779952.64248 -13765609.15147  21329260.9204   21329262.0164   21329261.071
        52.0004         47.0004
  -8705223.42848  -6715416.04247  22648684.3644   22648689.1874   22648684.156
        49.0004         44.0004
 -22517810.21349 -17491975.79948  20427982.5474   20427986.0234   20427982.148
        57.0004         52.0004
 17 10 13  0 27  0.0000000  0  9G15G17G25G02G19G13G12G06G24
  -4260526.84847  -3203940.54947  23776000.5864   23776004.2194   23776000.950
        47.0004         42.0004
 -11367622.77248  -8800888.51547  22743634.7044   22743635.1544   22743633.861
        50.0004         45.0004
  -1663920.07847  -1233583.84446  24619376.1344   24619381.9694   24619375.376
        43.0004         38.0004
  -3017908.63547  -2282472.34046  23902461.8674   23902462.8594   23902463.100
        45.0004         40.0004
 -21093817.39849 -16358525.14748  20854161.2704   20854161.7674   20854162.062
        54.0004         49.0004
   -568606.18846   -156424.39946  24727252.2514   24727255.6494   24727253.012
        41.0004         36.0004
 -17839995.38948 -13812395.70847  21317835.3794   21317836.5064   21317835.131
        52.0004         47.0004
  -8774713.71648  -6769564.30447  22635460.0344   22635465.2584   22635460.451
        49.0004         44.0004
 -22537968.76549 -17507683.76648  20424146.6934   20424150.2404   20424146.646
        57.0004         52.0004
 17 10 13  0 27 30.0000000  0  9G15G17G25G02G19G13G12G06G24
  -4165788.00147  -3130118.07647  23794028.6434   23794031.6514   23794027.914
        47.0004         42.0004
 -11287306.50848  -8738304.41447  22758918.0464   22758919.0274   22758917.328
        50.0004         45.0004
  -1756033.32247  -1305360.37846  24601847.5654   24601853.3114   24601848.280
        43.0004         38.0004
  -3109457.12247  -2353808.83746  23885042.3614   23885041.2694   23885042.555
        45.0004         41.0004
 -21043878.98249 -16319612.09748  20863664.4004   20863664.6354   20863665.264
        54.0004         50.0004
   -453953.51646    -67084.66046  24749070.6634   24749073.9854   24749071.112
        41.0004         36.0004
 -17899781.99448 -13858982.66548  21306457.8684   21306459.4784   21306458.315
        52.0004         48.0004
  -8843801.02748  -6823398.55347  22622313.9804   22622318.8704   22622312.739
        49.0004         44.0004
 -22557626.04549 -17523001.13048  20420405.8884   20420409.5384   20420405.375
        57.0004         52.0004
 17 10 13  0 28  0.0000000  0  9G15G17G25G02G19G13G12G06G24
  -4070906.91847  -3056184.78347  23812084.3214   23812085.3574   23812084.461
        47.0004         42.0004
 -11206729.77348  -8675517.34147  22774251.0464   22774251.7814   22774250.468
        50.0004         45.0004
  -1848076.24247  -1377082.09946  24584332.3674   24584336.3654   24584334.237
        43.0004         38.0004
  -3200911.10847  -2425071.68846  23867637.8374   23867638.6364   23867639.029
        45.0004         40.0004
 -20993403.49049 -16280280.53748  20873269.0524   20873269.2834   20873270.203
        54.0004         49.0004
   -339322.20346     22238.42146  24770882.3834   24770886.4894   24770884.680
        41.0004         36.0004
 -17959315.06348 -13905372.07548  21295129.5264   21295130.6484   21295129.452
        52.0004         48.0004
  -8912485.70948  -6876919.05347  22609243.5004   22609247.1724   22609242.591
        49.0004         44.0004
 -22576784.03949 -17537929.44248  20416759.8224   20416763.5744   20416759.184
        57.0004         52.0004
 17 10 13  0 28 30.0000000  0  9G15G17G25G02G19G13G12G06G24
  -3975895.19647  -2982149.67647  23830164.4684   23830166.5594   23830163.589
        47.0004         42.0004
 -11125902.69848  -8612535.20347  22789631.8324   22789632.9914   22789631.771
        50.0004         46.0004
  -1940056.45547  -1448754.97346  24566828.0604   24566831.6034   24566830.872
        43.0004         38.0004
  -3292276.01047  -2496265.11746  23850251.8504   23850252.1434   23850252.792
        45.0004         40.0004
 -20942401.22449 -16240538.50448  20882974.4224   20882974.8284   20882975.176
        54.0004         49.0004
   -224722.75046    111536.71346  24792692.5224   24792696.2784   24792691.913
        41.0004         36.0004
 -18018601.62548 -13951569.40448  21283847.6424   21283848.7394   21283847.417
        52.0004         48.0004
  -8980773.07948  -6930129.97747  22596248.1494   22596253.2314   22596247.061
        49.0004         44.0004
 -22595450.51949 -17552474.75348  20413208.0864   20413211.8404   20413208.307
        57.0004         52.0004
 17 10 13  0 29  0.0000000  0  9G15G17G25G02G19G13G12G06G24
  -3880748.70047  -2908009.56247  23848270.6064   23848273.0094   23848269.720
        46.0004         42.0004
 -11044821.35148  -8549354.93347  22805061.5454   22805062.1394   22805061.493
        50.0004         46.0004
  -2031967.10447  -1520373.64246  24549339.2274   24549343.1014   24549338.998
        42.0004         38.0004
  -3383542.72647  -2567382.05646  23832884.3594   23832884.7134   23832885.608
        45.0004         40.0004
 -20890868.11249 -16200382.83448  20892780.8314   20892781.2964   20892781.539
        54.0004         49.0004
   -110151.66746    200812.87146  24814493.2224   24814497.0614   24814492.937
        41.0004         36.0004
 -18077635.10648 -13997569.52548  21272614.0124   21272615.2854   21272613.981
        53.0004         48.0004
  -9048654.02348  -6983024.19547  22583330.7574   22583335.6874   22583330.708
        49.0004         44.0004
 -22613617.39249 -17566630.76448  20409750.8344   20409754.7924   20409750.838
        57.0004         52.0004
 17 10 13  0 29 30.0000000  0  9G15G17G25G02G19G13G12G06G24
  -3785467.02447  -2833764.13247  23866403.1884   23866404.3844   23866401.976
        46.0004         42.0004
 -10963484.22048  -8485975.35447  22820539.4594   22820540.2364   22820539.738
        50.0004         46.0004
  -2123804.11847  -1591934.93846  24531862.4344   24531868.3834   24531863.139
        43.0004         38.0004
  -3474705.64947  -2638418.09746  23815536.8624   23815538.0884   23815537.499
        45.0004         40.0004
 -20838802.87749 -16159812.51248  20902688.0894   20902688.4624   20902688.966
        54.0004         49.0004
      4391.88446    290067.60046  24836289.9494   24836293.6604   24836289.690
        41.0004         36.0004
 -18136411.70348 -14043369.46848  21261429.3504   21261430.0124   21261429.048
        53.0004         48.0004
  -9116122.17648  -7035596.75147  22570492.3134   22570497.0834   22570491.315
        49.0004         44.0004
 -22631279.77449 -17580393.65648  20406389.8424   20406393.9434   20406389.812
        57.0004         52.0004
 17 10 13  0 30  0.0000000  0  9G15G17G25G02G19G13G12G06G24
  -3690061.46147  -2759422.13847  23884557.4524   23884560.3644   23884557.439
        46.0004         42.0004
 -10881902.01348  -8422404.78347  22836064.0974   22836065.1054   22836063.502
        50.0004         46.0004
  -2215575.38147  -1663445.00246  24514400.0674   24514401.9284   24514400.347
        43.0004         38.0004
  -3565770.04547  -2709377.35946  23798208.8634   23798207.8704   23798208.126
        45.0004         41.0004
 -20786216.37849 -16118836.01148  20912695.3874   20912695.4324   20912696.584
        54.0004         49.0004
    118896.66946    379292.12746  24858079.0554   24858084.1764   24858080.543
        41.0004         36.0004
 -18194939.70348 -14088975.70448  21250291.1914   21250292.8884   21250291.070
        53.0004         48.0004
  -9183183.19448  -7087852.08047  22557730.3014   22557735.2754   22557730.514
        49.0004         44.0004
 -22648444.96949 -17593769.13248  20403123.3324   20403127.2044   20403122.843
        57.0004         52.0004
 17 10 13  0 30 30.0000000  0  9G15G17G25G02G19G13G12G06G24
  -3594526.92047  -2684979.64246  23902736.9854   23902738.9944   23902736.303
        46.0004         41.0004
 -10800069.23448  -8358638.97947  22851635.7174   22851636.3914   22851635.836
        50.0004         45.0004
  -2307272.55047  -1734897.28746  24496950.5224   24496954.8144   24496950.906
        43.0004         38.0004
  -3656725.16847  -2780251.48146  23780899.7694   23780899.9794   23780900.959
        45.0004         41.0004
 -20733102.86349 -16077448.84948  20922802.4764   20922803.2634   20922803.167
        54.0004         49.0004
    233368.40946    468490.91746  24879864.4554   24879867.0144   24879862.866
        41.0004         36.0004
 -18253210.02448 -14134381.13648  21239203.7024   21239205.0264   21239203.301
        53.0004         48.0004
  -9249826.40548  -7139781.83647  22545049.0424   22545052.9754   22545049.258
        49.0004         45.0004
 -22665103.76949 -17606750.01948  20399953.2264   20399956.9504   20399953.159
        57.0004         52.0004
 17 10 13  0 31  0.0000000  0  9G15G17G25G02G19G13G12G06G24
  -3498872.83947  -2610443.99946  23920938.0714   23920940.5264   23920938.971
        46.0004         41.0004
 -10717994.57348  -8294684.70847  22867254.5514   22867255.8344   22867254.190
        50.0004         45.0004
  -2398901.38947  -1806296.35046  24479513.5514   24479519.3144   24479514.287
        43.0004         38.0004
  -3747575.09347  -2851043.60046  23763611.7624   23763611.4594   23763613.121
        45.0004         41.0004
 -20679471.17849 -16035657.92448  20933008.1544   20933008.9884   20933009.119
        54.0004         49.0004
    347797.72446    557656.62746  24901639.9114   24901640.7384   24901639.276
        40.0004         36.0004
 -18311228.57548 -14179590.39648  21228162.9194   21228163.9804   21228162.593
        53.0004         48.0004
  -9316055.46848  -7191388.87747  22532445.8514   22532450.3324   22532445.855
        49.0004         45.0004
 -22681262.09949 -17619340.92548  20396878.2884   20396882.4984   20396877.315
        57.0004         52.0004
 17 10 13  0 31 30.0000000  0  9G15G17G25G02G19G13G12G06G24
  -3403097.89147  -2535814.17246  23939163.1184   23939165.1664   23939162.666
        46.0004         41.0004
 -10635675.77148  -8230540.19047  22882918.8314   22882919.7494   22882919.759
        50.0004         45.0004
  -2490457.16147  -1877638.47946  24462090.5724   24462094.3814   24462089.403
        43.0004         38.0004
  -3838312.63747  -2921748.17246  23746344.9094   23746344.9874   23746345.701
        45.0004         41.0004
 -20625319.41249 -15993461.73448  20943313.4684   20943313.8584   20943314.514
        54.0004         49.0004
    462186.43446    646790.69645  24923407.6854   24923407.6444   24923406.168
        40.0004         35.0004
 -18368991.40848 -14224600.38548  21217170.8114   21217171.9754   21217170.938
        53.0004         48.0004
  -9381863.38348  -7242667.76047  22519922.6494   22519927.2854   22519922.493
        49.0004         44.0004
 -22696914.24549 -17631537.40848  20393900.1404   20393904.0604   20393899.946
        57.0004         53.0004
 17 10 13  0 32  0.0000000  0  9G15G17G25G02G19G13G12G06G24
  -3307205.51547  -2461092.84646  23957410.6844   23957411.8424   23957410.087
        45.0004         41.0004
 -10553115.51648  -8166207.51747  22898630.2764   22898630.9864   22898629.968
        50.0004         45.0004
  -2581940.09247  -1948923.85646  24444681.5364   24444687.0654   24444682.125
        43.0004         38.0004
  -3928935.87047  -2992363.67246  23729099.6594   23729100.4364   23729101.222
        45.0004         41.0004
 -20570650.07949 -15950862.24348  20953717.0934   20953717.0124   20953717.860
        54.0004         49.0004
    576530.89546    735890.28745  24945166.4044   24945167.9724   24945165.328
        40.0004         35.0004
 -18426498.22848 -14269410.88548  21206227.4834   21206228.8914   21206228.040
        53.0004         48.0004
  -9447248.16548  -7293616.90647  22507480.1294   22507484.6034   22507479.764
        49.0004         45.0004
 -22712059.99549 -17643339.29748  20391018.5564   20391021.5614   20391018.627
        57.0004         53.0004
 17 10 13  0 32 30.0000000  0  9G15G17G25G02G19G13G12G06G24
  -3211201.21047  -2386284.33146  23975680.2694   23975682.6914   23975679.724
        45.0004         41.0004
 -10470318.85248  -8101690.63947  22914384.6684   22914386.4764   22914385.120
        50.0004         45.0004
  -2673352.46447  -2020154.22946  24427286.1984   24427291.6544   24427287.046
        43.0004         39.0004
  -4019445.01347  -3062890.27046  23711876.6064   23711876.9324   23711876.781
        45.0004         41.0004
 -20515468.37749 -15907863.51048  20964216.9314   20964217.7104   20964218.180
        54.0004         49.0004
    690825.96246    824951.34745  24966918.0764   24966917.6534   24966916.022
        40.0004         35.0004
 -18483751.20948 -14314023.60148  21195332.9074   21195333.5434   21195333.175
        53.0004         48.0004
  -9512209.94248  -7344236.46947  22495119.6364   22495124.2194   22495119.212
        50.0004         45.0004
 -22726701.05449 -17654747.91748  20388231.7334   20388235.7644   20388231.520
        57.0004         53.0004
 17 10 13  0 33  0.0000000  0  9G15G17G25G02G19G13G12G06G24
  -3115083.09847  -2311387.09946  23993973.7174   23993972.3174   23993971.230
        45.0004         41.0004
 -10387283.15648  -8036987.49247  22930186.7504   22930188.8564   22930186.629
        50.0004         45.0004
  -2764688.56447  -2091325.19846  24409905.9354   24409912.3984   24409904.863
        43.0004         39.0004
  -4109832.11747  -3133321.77746  23694675.9004   23694677.3604   23694677.154
        45.0004         40.0004
 -20459771.92549 -15864463.67848  20974815.9564   20974816.3094   20974817.168
        54.0004         49.0004
    805073.62646    913975.51146  24988655.3744   24988653.9324   24988655.101
        40.0004         36.0004
 -18540745.89048 -14358435.04448  21184487.2744   21184487.7044   21184487.249
        53.0004         48.0004
  -9576740.86648  -7394520.27347  22482838.7184   22482843.2944   22482839.315
        50.0004         45.0004
 -22740831.13449 -17665758.37248  20385542.7844   20385547.2704   20385542.400
        57.0004         53.0004
 17 10 13  0 33 30.0000000  0  9G15G17G25G02G19G13G12G06G24
  -3018859.83547  -2236407.96246  24012281.9714   24012285.6554   24012281.740
        45.0004         41.0004
 -10304016.42748  -7972104.33247  22946031.8284   22946032.6894   22946031.509
        50.0004         45.0004
  -2855953.61247  -2162440.82346  24392539.1724   24392543.8844   24392539.684
        43.0004         38.0004
  -4200100.28247  -3203660.58746  23677499.3384   23677499.4404   23677498.534
        45.0004         40.0004
 -20403568.87149 -15820669.07848  20985510.7514   20985511.3814   20985512.152
        54.0004         49.0004
    919265.81646   1002956.43845  25010385.7884   25010386.3534   25010383.457
        40.0004         35.0004
 -18597486.26848 -14402648.32448  21173689.6414   21173690.0484   21173690.004
        53.0004         48.0004
  -9640843.89848  -7444470.67447  22470640.7674   22470645.5164   22470640.973
        50.0004         45.0004
 -22754455.08249 -17676374.44048  20382950.4994   20382954.5704   20382950.661
        57.0004         53.0004
 17 10 13  0 34  0.0000000  0  9G15G17G25G02G19G13G12G06G24
  -2922530.03147  -2161345.76746  24030613.2744   24030616.6044   24030612.240
        46.0004         41.0004
 -10220517.02648  -7907039.85447  22961920.5894   22961921.6244   22961920.913
        49.0004         45.0004
  -2947143.19647  -2233497.62246  24375187.2114   24375189.7924   24375188.937
        43.0004         38.0004
  -4290242.64047  -3273901.39146  23660345.3014   23660344.0114   23660345.082
        45.0004         40.0004
 -20346857.47049 -15776478.36748  20996303.1754   20996303.2834   20996304.129
        54.0004         49.0004
   1033404.07546   1091895.33246  25032104.7734   25032106.3744   25032105.444
        40.0004         36.0004
 -18653968.40848 -14446660.38248  21162941.6684   21162942.1114   21162941.422
        53.0004         48.0004
  -9704512.56348  -7494082.58547  22458524.8724   22458529.8724   22458524.684
        50.0004         45.0004
 -22767567.78249 -17686592.13248  20380454.8784   20380459.1114   20380454.450
        57.0004         53.0004
 17 10 13  0 34 30.0000000  0  9G15G17G25G02G19G13G12G06G24
  -2826097.93247  -2086203.87446  24048963.5514   24048967.0044   24048963.983
        46.0004         41.0004
 -10136788.21748  -7841796.62147  22977854.2084   22977855.0184   22977854.038
        49.0004         45.0004
  -3038258.22947  -2304496.30346  24357847.3794   24357854.4024   24357848.904
        43.0004         38.0004
  -4380258.25747  -3344043.42946  23643216.4004   23643216.2194   23643215.997
        45.0004         41.0004
 -20289641.69149 -15731894.63648  21007190.5914   21007191.3094   21007191.029
        54.0004         49.0004
   1147484.12046   1180788.87746  25053817.1134   25053815.2664   25053814.942
        40.0004         36.0004
 -18710193.19148 -14490471.89148  21152242.3914   21152243.6324   21152242.629
        53.0004         49.0004
  -9767745.61548  -7543355.07047  22446492.0524   22446497.5144   22446491.727
        50.0004         45.0004
 -22780169.70249 -17696411.81648  20378057.2194   20378061.2304   20378056.617
        57.0004         53.0004
 17 10 13  0 35  0.0000000  0  9G15G17G25G02G19G13G12G06G24
  -2729567.39747  -2010985.27146  24067333.9494   24067335.4084   24067332.773
        45.0004         40.0004
 -10052833.51548  -7776377.38347  22993830.0444   22993831.5684   22993829.787
        50.0004         45.0004
  -3129299.05647  -2375437.17346  24340523.4324   24340527.7904   24340523.210
        42.0004         37.0004
  -4470145.45047  -3414085.38346  23626111.6784   23626110.5574   23626113.472
        45.0004         41.0004
 -20231924.81849 -15686920.44048  21018173.9544   21018174.3414   21018174.877
        54.0004         49.0004
   1261502.46146   1269634.31946  25075511.8244   25075510.8544   25075511.262
        40.0004         36.0004
 -18766161.34848 -14534083.43448  21141591.9664   21141592.7674   21141592.008
        53.0004         48.0004
  -9830541.32148  -7592286.76947  22434542.3394   22434547.0374   22434542.284
        50.0004         45.0004
 -22792261.09449 -17705833.68648  20375756.3984   20375760.0334   20375756.344
        57.0004         53.0004
 17 10 13  0 35 30.0000000  0  9G15G17G25G02G19G13G12G06G24
  -2632939.24247  -1935690.61646  24085719.5044   24085723.0744   24085720.030
        45.0004         41.0004
  -9968652.35648  -7710781.68547  23009849.2314   23009850.4364   23009849.421
        49.0004         44.0004
  -3220262.60247  -2446317.86346  24323212.6644   24323216.7674   24323215.004
        42.0004         38.0004
  -4559898.95947  -3484023.18346  23609032.3304   23609031.7894   23609033.561
        46.0004         41.0004
 -20173706.97549 -15641555.87248  21029252.4114   21029252.4714   21029253.434
        54.0004         49.0004
   1375459.04646   1358431.66246  25097196.1564   25097198.1694   25097196.362
        40.0004         36.0004
 -18821869.25848 -14577492.18648  21130990.6184   21130991.9134   21130990.363
        53.0004         48.0004
  -9892894.44748  -7640873.61647  22422677.9314   22422681.7214   22422677.473
        50.0004         45.0004
 -22803838.01649 -17714854.67348  20373553.0984   20373556.8884   20373552.714
        57.0004         53.0004
 17 10 13  0 36  0.0000000  0  9G15G17G25G02G19G13G12G06G24
  -2536216.38847  -1860322.19046  24104127.0134   24104126.7634   24104126.444
        45.0004         40.0004
  -9884247.52448  -7645011.67847  23025911.7224   23025911.8744   23025911.595
        49.0004         45.0004
  -3311148.92647  -2517138.33546  24305918.7804   24305923.5754   24305918.700
        42.0004         38.0004
  -4649516.43147  -3553854.96046  23591977.7804   23591979.5114   23591978.703
        46.0004         41.0004
 -20114990.57649 -15595802.82748  21040425.5914   21040425.3174   21040426.791
        54.0004         49.0004
   1489350.48346   1447178.23646  25118868.9354   25118870.0764   25118868.116
        40.0004         36.0004
 -18877317.44548 -14620698.55648  21120439.8534   21120440.3614   21120439.846
        53.0004         48.0004
  -9954803.06848  -7689114.07147  22410896.5884   22410899.6544   22410896.024
        50.0004         45.0004
 -22814900.26249 -17723474.61048  20371448.0164   20371452.1944   20371447.759
        57.0004         53.0004
 17 10 13  0 36 30.0000000  0  9G15G17G25G02G19G13G12G06G24
  -2439403.42347  -1784883.52946  24122551.0414   24122550.0864   24122550.592
        45.0004         41.0004
  -9799623.22848  -7579070.66447  23042015.0404   23042015.1164   23042014.438
        49.0004         44.0004
  -3401959.33347  -2587899.65346  24288638.4144   24288644.1734   24288636.221
        43.0004         38.0004
  -4738997.14247  -3623580.17847  23574950.7994   23574949.8394   23574951.596
        46.0004         42.0004
 -20055780.19649 -15549664.86248  21051693.0344   21051693.3404   21051693.825
        54.0004         49.0004
   1603172.17346   1535870.45945  25140531.8244   25140529.6464   25140527.697
        40.0004         35.0004
 -18932507.77348 -14663703.99148  21109937.7484   21109938.4384   21109937.927
        53.0004         49.0004
 -10016266.39048  -7737007.53647  22399200.1444   22399204.6094   22399199.439
        50.0004         45.0004
 -22825448.63849 -17731694.12448  20369440.7744   20369444.8744   20369440.725
        57.0004         53.0004
 17 10 13  0 37  0.0000000  0  9G15G17G25G02G19G13G12G06G24
  -2342503.68547  -1709377.26346  24140988.7234   24140991.1734   24140989.086
        45.0004         41.0004
  -9714781.62148  -7512960.29647  23058159.9944   23058160.1224   23058159.455
        49.0004         44.0004
  -3492693.55647  -2658601.62146  24271370.8474   24271376.0314   24271372.241
        43.0004         38.0004
  -4828338.87847  -3693197.10446  23557948.5864   23557949.8224   23557951.423
        46.0004         41.0004
 -19996078.51249 -15503144.06848  21063053.3914   21063054.3474   21063054.853
        54.0004         49.0004
   1716922.16046   1624506.81745  25162173.8184   25162176.2394   25162173.533
        40.0004         35.0004
 -18987439.25748 -14706507.73148  21099484.0214   21099485.0064   21099483.586
        53.0004         49.0004
 -10077282.01648  -7784552.17347  22387589.6124   22387593.6894   22387588.808
        50.0004         45.0004
 -22835482.71849 -17739512.89248  20367531.4004   20367535.2244   20367530.858
        57.0004         53.0004
 17 10 13  0 37 30.0000000  0  9G15G17G25G02G19G13G12G06G24
  -2245516.47747  -1633802.81846  24159443.1114   24159446.7224   24159442.804
        45.0004         41.0004
  -9629720.98948  -7446679.28947  23074345.6094   23074346.1374   23074346.167
        49.0004         44.0004
  -3583347.13047  -2729240.72646  24254119.2984   24254123.8664   24254119.992
        42.0004         38.0004
  -4917534.89447  -3762700.49446  23540975.3674   23540974.3204   23540975.692
        46.0004         41.0004
 -19935884.04249 -15456239.27348  21074508.0894   21074508.9374   21074509.079
        54.0004         49.0004
   1830601.20246   1713087.89545  25183805.8044   25183809.4034   25183806.713
        40.0004         35.0004
 -19042107.76348 -14749106.55848  21089080.9314   21089081.7514   21089080.229
        53.0004         48.0004
 -10137843.57548  -7831742.98147  22376064.6174   22376070.5484   22376064.201
        50.0004         46.0004
 -22844997.20049 -17746926.78048  20365720.7484   20365724.5984   20365720.607
        57.0004         53.0004
 17 10 13  0 38  0.0000000  0  9G15G17G25G02G19G13G12G06G24
  -2148447.06147  -1558164.32546  24177915.6534   24177917.4274   24177915.992
        45.0004         40.0004
  -9544446.59648  -7380231.70047  23090573.3624   23090574.1664   23090572.786
        49.0004         44.0004
  -3673922.27747  -2799818.74346  24236882.9814   24236886.5734   24236884.747
        42.0004         37.0004
  -5006584.80947  -3832090.05946  23524030.4154   23524030.3304   23524030.498
        46.0004         41.0004
 -19875202.17549 -15408954.69748  21086055.5544   21086055.9954   21086056.801
        54.0004         49.0004
   1944203.46546   1801609.13045  25205429.3414   25205427.9274   25205426.024
        39.0004         34.0004
 -19096516.03048 -14791502.59648  21078727.5794   21078728.6144   21078727.457
        53.0004         48.0004
 -10197951.22848  -7878580.10647  22364627.3294   22364631.0114   22364626.215
        50.0004         45.0004
 -22853994.31949 -17753937.53148  20364008.8554   20364012.3154   20364008.478
        57.0004         53.0004
 17 10 13  0 38 30.0000000  0  9G15G17G25G02G19G13G12G06G24
  -2051299.34247  -1482464.79346  24196404.7934   24196402.7994   24196402.637
        45.0004         40.0004
  -9458961.56048  -7313619.98547  23106840.4714   23106841.4024   23106840.082
        49.0004         44.0004
  -3764419.77447  -2870336.23846  24219664.6584   24219666.9864   24219665.670
        43.0004         38.0004
  -5095487.91147  -3901365.17947  23507112.3734   23507112.6174   23507113.367
        46.0004         42.0004
 -19814036.55048 -15361293.16848  21097695.1724   21097695.8344   21097696.597
        53.0004         49.0004
   2057725.96146   1890068.21545  25227027.6404   25227025.8464   25227028.182
        39.0004         34.0004
 -19150664.23848 -14833695.98548  21068422.8394   21068424.7824   21068423.384
        53.0004         49.0004
 -10257603.70048  -7925062.53747  22353274.9184   22353279.8254   22353275.109
        50.0004         45.0004
 -22862474.98549 -17760545.85748  20362394.7894   20362398.8064   20362394.527
        57.0004         53.0004
 17 10 13  0 39  0.0000000  0  9G15G17G25G02G19G13G12G06G24
  -1954076.34347  -1406706.61846  24214904.3174   24214905.2504   24214904.147
        45.0004         40.0004
  -9373268.36448  -7246846.06447  23123146.7904   23123148.4814   23123147.394
        49.0004         45.0004
  -3854839.19847  -2940792.90446  24202457.2714   24202462.6054   24202457.838
        43.0004         38.0004
  -5184241.50147  -3970523.79547  23490222.8874   23490223.8354   23490223.281
        46.0004         42.0004
 -19752389.86448 -15313256.77948  21109425.9744   21109426.7134   21109426.579
        53.0004         49.0004
   2171165.74646   1978462.88045  25248615.6244   25248613.5604   25248613.918
        38.0004         33.0004
 -19204552.19148 -14875686.59548  21058169.2304   21058169.8024   21058169.168
        53.0004         49.0004
 -10316798.64448  -7971188.44947  22342009.9454   22342015.2324   22342010.153
        50.0004         45.0004
 -22870437.71849 -17766750.58948  20360879.7194   20360883.5394   20360879.540
        57.0004         53.0004
 17 10 13  0 39 30.0000000  0  9G15G17G25G02G19G13G12G06G24
  -1856776.91947  -1330888.92646  24233419.7994   24233419.5774   24233420.435
        45.0004         40.0004
  -9287365.03148  -7179908.40547  23139494.0584   23139495.5294   23139493.808
        49.0004         45.0004
  -3945175.81747  -3011185.03546  24185265.7794   24185271.3884   24185264.876
        43.0004         38.0004
  -5272838.41747  -4039560.34247  23473364.1894   23473364.3564   23473364.458
        47.0004         42.0004
 -19690260.42748 -15264844.22048  21121249.5084   21121249.0534   21121250.844
        53.0004         49.0004
   2284524.35546   2066794.32545  25270187.6524   25270182.5274   25270186.118
        38.0004         33.0004
 -19258175.64348 -14917471.08948  21047964.5394   21047965.4284   21047964.327
        53.0004         48.0004
 -10375529.40848  -8016952.65747  22330834.7904   22330838.9554   22330835.043
        50.0004         45.0004
 -22877878.33649 -17772548.46948  20359463.8174   20359467.7874   20359463.159
        57.0004         53.0004
 17 10 13  0 40  0.0000000  0  9G15G17G25G02G19G13G12G06G24
  -1759407.90947  -1255016.97246  24251948.7814   24251949.0474   24251949.477
        45.0004         40.0004
  -9201257.60348  -7112811.71847  23155879.5144   23155881.0664   23155879.323
        49.0004         45.0004
  -4035433.05447  -3081515.36446  24168090.4614   24168095.6774   24168090.570
        43.0004         38.0004
  -5361280.31647  -4108476.11447  23456533.7244   23456534.4694   23456534.793
        47.0004         42.0004
 -19627654.50249 -15216060.38148  21133163.0324   21133162.5274   21133164.032
        54.0004         49.0004
   2397795.38346   2155057.45945  25291743.7204   25291743.3214   25291741.703
        38.0004         33.0004
 -19311538.03748 -14959052.15448  21037809.7524   21037810.7184   21037809.365
        53.0004         48.0004
 -10433797.37848  -8062356.27147  22319745.9914   22319751.2394   22319745.905
        50.0004         45.0004
 -22884799.22049 -17777941.37648  20358146.7534   20358150.6544   20358146.537
        57.0004         53.0004
 17 10 13  0 40 30.0000000  0  9G15G17G25G02G19G13G12G06G24
  -1661969.51547  -1179090.95346  24270490.3514   24270491.1424   24270487.552
        45.0004         40.0004
  -9114945.60748  -7045555.62547  23172303.7804   23172306.0334   23172303.913
        49.0004         44.0004
  -4125607.69647  -3151781.26246  24150931.7484   24150936.8914   24150932.146
        43.0004         38.0004
  -5449562.13947  -4177267.14547  23439734.4884   23439735.4264   23439734.902
        47.0004         42.0004
 -19564572.32849 -15166905.43348  21145167.0054   21145167.2144   21145168.059
        54.0004         49.0004
   2510978.51946   2243252.12045  25313281.0814   25313281.7274   25313278.892
        37.0004         33.0004
 -19364635.81648 -15000427.03648  21027705.6524   21027706.4554   21027706.161
        53.0004         49.0004
 -10491597.44848  -8107395.27147  22308747.4694   22308752.9104   22308747.501
        50.0004         45.0004
 -22891196.99849 -17782926.65748  20356929.3654   20356933.2534   20356929.341
        57.0004         53.0004
 17 10 13  0 41  0.0000000  0  9G15G17G25G02G19G13G12G06G24
  -1564466.91747  -1103114.89946  24289043.8144   24289046.1274   24289043.039
        45.0004         41.0004
  -9028433.57548  -6978143.63347  23188766.8964   23188768.0894   23188767.311
        49.0004         44.0004
  -4215701.54747  -3221984.24246  24133786.7614   24133792.0964   24133786.113
        43.0004         39.0004
  -5537682.74347  -4245932.54847  23422966.0194   23422966.0544   23422965.850
        47.0004         42.0004
 -19501018.17649 -15117382.70748  21157260.8644   21157261.1704   21157262.385
        54.0004         49.0004
   2624069.32046   2331374.85445  25334799.4284   25334802.8574   25334799.840
        37.0004         33.0004
 -19417471.17548 -15041597.44348  21017652.1874   21017652.3874   21017651.629
        53.0004         49.0004
 -10548929.46848  -8152069.55547  22297837.0724   22297841.9284   22297836.981
        50.0004         45.0004
 -22897073.17449 -17787505.50648  20355811.2224   20355814.8404   20355811.236
        57.0004         53.0004
 17 10 13  0 41 30.0000000  0  8G15G17G25G02G19G12G06G24
  -1466901.03647  -1027089.53946  24307609.0624   24307611.3624   24307609.785
        45.0004         41.0004
  -8941722.05248  -6910576.21247  23205267.5434   23205269.0804   23205267.666
        49.0004         44.0004
  -4305712.32747  -3292122.47446  24116657.7474   24116663.7984   24116658.193
        43.0004         39.0004
  -5625638.22847  -4314469.28347  23406228.8224   23406227.7264   23406228.680
        47.0004         42.0004
 -19436993.39648 -15067493.26148  21169444.6394   21169444.7544   21169445.732
        53.0004         49.0004
 -19470041.88948 -15082561.62548  21007647.8304   21007648.5754   21007647.831
        53.0004         49.0004
 -10605789.38848  -8196375.97147  22287016.9744   22287022.2094   22287017.240
        50.0004         45.0004
 -22902425.59249 -17791676.22448  20354792.6184   20354796.6914   20354792.250
        57.0004         53.0004
 17 10 13  0 42  0.0000000  0  9G15G17G25G02G19G13G12G06G24
  -1369276.99447   -951018.84846  24326187.5724   24326188.2894   24326188.052
        45.0004         41.0004
  -8854815.45448  -6842856.79247  23221805.0154   23221806.1504   23221805.020
        49.0004         44.0004
  -4395641.98047  -3362197.47446  24099544.8004   24099550.1914   24099546.144
        43.0004         39.0004
  -5713428.34647  -4382877.15147  23389522.2344   23389521.1774   23389523.229
        47.0004         42.0004
 -19372502.83048 -15017240.86648  21181716.4064   21181717.0594   21181717.707
        53.0004         49.0004
                                                                  25377785.940

 -19522349.80348 -15123321.01648  20997692.8494   20997694.6484   20997692.787
        53.0004         49.0004
 -10662177.13548  -8240314.44147  22276286.5254   22276292.5844   22276287.089
        50.0004         46.0004
 -22907255.86149 -17795440.07348  20353873.5454   20353877.1594   20353873.213
        57.0004         53.0004
 17 10 13  0 42 30.0000000  0  9G15G17G25G02G19G13G12G06G24
  -1271593.28147   -874901.66446  24344776.9834   24344777.2244   24344776.564
        45.0004         40.0004
  -8767711.59748  -6774983.66047  23238380.3764   23238380.9844   23238380.728
        48.0004         44.0004
  -4485485.44647  -3432205.33646  24082449.2884   24082453.3634   24082448.824
        44.0004         39.0004
  -5801045.99847  -4451150.62847  23372850.0774   23372849.5104   23372850.044
        47.0004         43.0004
 -19307544.30148 -14966623.82648  21194077.4874   21194077.8264   21194078.301
        53.0004         49.0004
                                                                  25399253.535

 -19574390.33748 -15163872.06948  20987791.1814   20987791.8554   20987790.866
        53.0004         49.0004
 -10718085.87648  -8283879.67547  22265648.1974   22265653.1084   22265648.378
        51.0004         46.0004
 -22911558.95949 -17798793.14248  20353054.5684   20353058.6084   20353054.236
        57.0004         53.0004
 17 10 13  0 43  0.0000000  0  8G15G17G25G02G19G12G06G24
  -1173858.31647   -798744.56646  24363372.1954   24363376.7974   24363373.291
        45.0004         40.0004
  -8680417.82248  -6706962.52747  23254992.3464   23254993.4284   23254992.002
        48.0004         44.0004
  -4575247.50847  -3502149.76846  24065366.6314   24065372.5194   24065367.699
        43.0004         39.0004
  -5888493.63047  -4519291.64747  23356207.9274   23356208.0184   23356210.067
        47.0004         42.0004
 -19242126.02748 -14915648.54348  21206525.6994   21206526.4054   21206526.554
        53.0004         48.0004
 -19626168.43448 -15204218.64248  20977938.2374   20977938.8354   20977937.755
        53.0004         49.0004
 -10773518.51348  -8327073.92347  22255099.6234   22255104.5244   22255098.793
        51.0004         46.0004
 -22915339.21649 -17801738.80248  20352335.4734   20352339.1864   20352335.151
        57.0004         53.0004
 17 10 13  0 43 30.0000000  0  8G15G17G25G02G19G12G06G24
  -1076069.40647   -722545.43746  24381982.3824   24381987.0644   24381983.640
        45.0004         41.0004
  -8592930.58048  -6638790.64147  23271640.3174   23271640.9484   23271639.955
        48.0004         44.0004
  -4664921.65947  -3572025.73246  24048302.5814   24048307.6154   24048305.115
        43.0004         39.0004
  -5975762.91747  -4587293.67947  23339601.9654   23339600.7744   23339601.716
        47.0004         42.0004
 -19176244.58348 -14864312.35148  21219062.7754   21219063.1894   21219063.036
        53.0004         48.0004
 -19677677.22848 -15244355.35148  20968136.2174   20968136.6804   20968136.214
        53.0004         49.0004
 -10828466.74748  -8369890.70847  22244642.9694   22244648.5934   22244641.932
        51.0004         46.0004
 -22918589.73849 -17804271.68248  20351716.5884   20351720.6004   20351716.351
        57.0004         53.0004
 17 10 13  0 44  0.0000000  0  8G15G17G25G02G19G12G06G24
   -978233.56147   -646309.71446  24400599.5974   24400603.7044   24400600.345
        45.0004         40.0004
  -8505257.04048  -6570473.60647  23288324.4824   23288324.9654   23288323.408
        48.0004         44.0004
  -4754512.62247  -3641836.85146  24031254.9954   24031259.2084   24031254.807
        44.0004         39.0004
  -6062856.37247  -4655158.70347  23323028.5134   23323028.0674   23323028.986
        47.0004         42.0004
 -19109907.76748 -14812621.31348  21231686.5094   21231686.3344   21231687.280
        53.0004         49.0004
 -19728921.40548 -15284285.87648  20958384.9784   20958385.3534   20958384.974
        53.0004         49.0004
 -10882933.50648  -8412332.33747  22234279.3104   22234283.7054   22234279.054
        51.0004         46.0004
 -22921315.04149 -17806395.29948  20351198.1054   20351201.8324   20351197.729
        57.0004         53.0004
 17 10 13  0 44 30.0000000  0  8G15G17G25G02G19G12G06G24
   -880351.24747   -570037.74646  24419227.8704   24419228.2054   24419226.869
        45.0004         41.0004
  -8417397.06248  -6502011.29347  23305043.6114   23305044.7774   23305043.633
        48.0004         44.0004
  -4844017.43247  -3711580.81146  24014222.9294   24014228.4004   24014223.607
        44.0004         39.0004
  -6149768.84347  -4722882.71247  23306489.7814   23306489.2224   23306489.783
        46.0004         42.0004
 -19043115.86448 -14760575.66248  21244396.9214   21244396.9474   21244398.075
        53.0004         49.0004
 -19779898.35548 -15324008.16548  20948684.1074   20948684.9094   20948683.819
        53.0004         49.0004
 -10936914.02848  -8454395.04447  22224006.8114   22224011.3584   22224006.589
        51.0004         46.0004
 -22923512.74549 -17808107.80348  20350779.8494   20350783.7324   20350779.623
        57.0004         53.0004
 17 10 13  0 45  0.0000000  0  8G15G17G25G02G19G12G06G24
   -782425.83947   -493732.25246  24437861.1384   24437863.3934   24437861.472
        45.0004         40.0004
  -8329352.82648  -6433405.38847  23321798.8784   23321798.6224   23321797.843
        48.0004         43.0004
  -4933435.52747  -3781257.21446  23997208.1164   23997210.9714   23997208.243
        44.0004         40.0004
  -6236497.84747  -4790463.74847  23289984.8874   23289985.9654   23289986.146
        47.0004         42.0004
 -18975871.38548 -14708177.36648  21257192.9534   21257192.8544   21257193.535
        53.0004         49.0004
 -19830608.04149 -15363522.19548  20939034.6114   20939035.2834   20939034.433
        54.0004         49.0004
 -10990405.97448  -8496077.07547  22213827.6234   22213831.5824   22213827.098
        50.0004         45.0004
 -22925182.02849 -17809408.54548  20350462.4534   20350466.0084   20350462.111
        57.0004         53.0004
 17 10 13  0 45 30.0000000  0  8G15G17G25G02G19G12G06G24
   -684461.84247   -417396.66346  24456504.5274   24456505.9144   24456502.105
        45.0004         40.0004
  -8241127.96048  -6364658.75747  23338586.0904   23338587.0794   23338586.345
        48.0004         43.0004
  -5022768.00647  -3850866.89846  23980206.3234   23980211.8044   23980206.265
        44.0004         39.0004
  -6323042.35847  -4857901.02947  23273515.2784   23273516.7004   23273515.672
        47.0004         42.0004
 -18908178.43048 -14655429.61348  21270074.3104   21270074.6704   21270074.550
        53.0004         48.0004
 -19881051.61649 -15402828.88348  20929435.5714   20929435.9474   20929435.202
        54.0004         49.0004
 -11043408.78048  -8537377.94647  22203740.3704   22203746.2774   22203740.434
        50.0004         45.0004
 -22926323.99049 -17810298.39248  20350244.9674   20350249.0574   20350244.874
        57.0004         53.0004
 17 10 13  0 46  0.0000000  0  8G15G17G25G02G19G12G06G24
   -586459.43947   -341031.16246  24475152.0884   24475153.2694   24475152.706
        44.0004         40.0004
  -8152722.44548  -6295771.34847  23355409.6044   23355410.1384   23355408.808
        48.0004         43.0004
  -5112012.20447  -3920407.79646  23963224.3194   23963228.9074   23963224.258
        44.0004         39.0004
  -6409397.55247  -4925190.78647  23257083.5614   23257084.0394   23257084.222
        47.0004         42.0004
 -18840037.62648 -14602332.88248  21283041.6784   21283041.1234   21283042.364
        53.0004         48.0004
 -19931226.07349 -15441925.86648  20919887.1154   20919887.8584   20919887.272
        54.0004         49.0004
 -11095917.91148  -8578294.15647  22193749.7634   22193753.6224   22193749.021
        50.0004         46.0004
 -22926935.51949 -17810774.91048  20350128.1864   20350132.6924   20350128.017
        57.0004         53.0004
 17 10 13  0 46 30.0000000  0  8G15G17G25G02G19G12G06G24
   -488422.26147   -264638.57546  24493809.3884   24493810.4774   24493807.102
        44.0004         39.0004
  -8064139.09248  -6226745.34347  23372266.2024   23372267.7924   23372265.263
        48.0004         43.0004
  -5201168.19147  -3989879.95446  23946258.6454   23946263.8174   23946258.314
        44.0004         40.0004
  -6495561.34647  -4992331.36247  23240687.5824   23240687.6534   23240688.152
        47.0004         42.0004
 -18771451.94048 -14548889.47348  21296092.4104   21296092.6554   21296093.568
        53.0004         48.0004
 -19981131.58449 -15480813.26548  20910390.6094   20910391.7484   20910390.698
        54.0004         49.0004
 -11147931.89148  -8618824.50647  22183850.6354   22183855.1964   22183850.814
        50.0004         46.0004
 -22927017.19249 -17810838.55748  20350112.9994   20350116.8054   20350112.562
        57.0004         53.0004
 17 10 13  0 47  0.0000000  0  8G15G17G25G02G19G12G06G24
   -390352.57647   -188220.63046  24512469.5174   24512472.9054   24512469.747
        44.0004         39.0004
  -7975379.41548  -6157581.97147  23389157.2344   23389158.1664   23389155.813
        48.0004         43.0004
  -5290234.72247  -4059282.43846  23929311.0714   23929315.1714   23929310.170
        44.0004         40.0004
  -6581530.64847  -5059320.42947  23224327.0644   23224328.1074   23224329.072
        47.0004         42.0004
 -18702423.73548 -14495101.25148  21309228.2334   21309228.3664   21309228.894
        53.0004         48.0004
 -20030766.91249 -15519490.14148  20900945.2714   20900946.1824   20900944.599
        54.0004         49.0004
 -11199447.75248  -8658966.70447  22174046.9014   22174052.6374   22174047.265
        51.0004         46.0004
 -22926567.09649 -17810487.83748  20350198.6874   20350202.5554   20350198.324
        57.0004         53.0004
 17 10 13  0 47 30.0000000  0  8G15G17G25G02G19G12G06G24
   -292255.81447   -111781.60446  24531138.6204   24531140.2144   24531138.225
        44.0004         39.0004
  -7886448.26948  -6088284.98347  23406079.2764   23406081.3764   23406079.419
        48.0004         43.0004
  -5379213.78847  -4128616.74846  23912377.8934   23912381.9784   23912378.640
        45.0004         40.0004
  -6667305.45847  -5126157.94547  23208004.0254   23208004.6294   23208003.839
        46.0004         42.0004
 -18632957.92648 -14440972.05148  21322446.8104   21322447.3304   21322447.880
        53.0004         48.0004
 -20080134.37149 -15557958.28248  20891551.3734   20891551.8544   20891551.173
        54.0004         49.0004
 -11250465.72648  -8698720.95547  22164339.1244   22164343.8284   22164339.799
        51.0004         46.0004
 -22925587.54749 -17809724.55548  20350384.7934   20350388.8814   20350384.391
        57.0004         53.0004
 17 10 13  0 48  0.0000000  0  8G15G17G25G02G19G12G06G24
   -194131.26947    -35320.91146  24549809.1934   24549812.7714   24549809.723
        44.0004         39.0004
  -7797344.33448  -6018853.33847  23423035.8344   23423037.0024   23423036.081
        48.0004         44.0004
  -5468101.54647  -4197879.90446  23895464.2494   23895468.0844   23895464.462
        45.0004         40.0004
  -6752879.59747  -5192839.11047  23191721.0094   23191721.9584   23191721.883
        46.0004         42.0004
 -18563054.21648 -14386501.61548  21335749.2884   21335748.9344   21335750.438
        53.0004         48.0004
 -20129230.28249 -15596214.83448  20882208.3094   20882209.4614   20882208.016
        54.0004         49.0004
 -11300980.42948  -8738083.03847  22154727.3834   22154731.7004   22154726.227
        51.0004         46.0004
 -22924074.68249 -17808545.70348  20350672.5144   20350677.1564   20350672.309
        57.0004         53.0004
 17 10 13  0 48 30.0000000  0  8G15G17G25G02G19G12G06G24
    -95983.66147     41157.72846  24568488.0334   24568488.5264   24568486.980
        44.0004         39.0004
  -7708071.58348  -5949290.13947  23440023.1974   23440025.7934   23440023.483
        48.0004         43.0004
  -5556899.34947  -4267072.96946  23878566.6454   23878570.8594   23878566.994
        45.0004         40.0004
  -6838252.41947  -5259363.37147  23175474.6614   23175475.7084   23175476.480
        47.0004         42.0004
 -18492716.66948 -14331693.13348  21349134.0404   21349134.2734   21349135.202
        53.0004         48.0004
 -20178056.38049 -15634261.13448  20872916.6064   20872918.0044   20872916.366
        54.0004         49.0004
 -11350991.50148  -8777052.70747  22145210.8764   22145214.7704   22145210.560
        51.0004         46.0004
 -22922029.94749 -17806952.40648  20351062.4594   20351065.9524   20351062.518
        57.0004         53.0004
 17 10 13  0 49  0.0000000  0  8G15G17G25G02G19G12G06G24
      2186.57547    117654.02046  24587166.9474   24587170.0084   24587168.282
        43.0004         39.0004
  -7618629.78048  -5879595.21647  23457043.5854   23457044.8494   23457042.687
        48.0004         43.0004
  -5645604.44947  -4336193.80346  23861686.3244   23861690.3304   23861687.073
        45.0004         40.0004
  -6923419.27947  -5325727.15347  23159267.3424   23159269.2284   23159268.249
        47.0004         43.0004
 -18421945.95948 -14276547.12448  21362601.3384   21362601.5894   21362602.257
        53.0004         48.0004
 -20226609.87049 -15672095.01748  20863677.1824   20863678.4304   20863677.414
        54.0004         49.0004
 -11400494.73048  -8815626.61247  22135789.7544   22135795.2364   22135789.842
        51.0004         46.0004
 -22919451.03449 -17804942.86848  20351553.1204   20351556.9984   20351553.012
        57.0004         53.0004
 17 10 13  0 49 30.0000000  0  8G15G17G25G02G19G12G06G24
    100370.55047    194161.00546  24605851.6484   24605853.4784   24605852.126
        43.0004         39.0004
  -7529027.24648  -5809775.07647  23474093.3684   23474097.0794   23474093.919
        48.0004         43.0004
  -5734222.22447  -4405246.58646  23844820.9514   23844826.4294   23844822.309
        45.0004         40.0004
  -7008383.30347  -5391932.86747  23143099.9754   23143100.6424   23143100.570
        47.0004         43.0004
 -18350750.81948 -14221070.38348  21376148.9124   21376149.8414   21376149.812
        53.0004         48.0004
 -20274895.72349 -15709720.35948  20854489.0054   20854490.2154   20854489.005
        54.0004         49.0004
 -11449493.77848  -8853807.67747  22126465.5704   22126470.8304   22126465.575
        51.0004         46.0004
 -22916342.69449 -17802520.78448  20352144.2244   20352148.3144   20352143.987
        57.0004         53.0004
 17 10 13  0 50  0.0000000  0  8G15G17G25G02G19G12G06G24
    198573.82247    270683.00546  24624537.7354   24624540.3654   24624538.085
        43.0004         38.0004
  -7439257.37048  -5739824.51847  23491177.2304   23491178.1804   23491176.622
        48.0004         43.0004
  -5822743.53947  -4474224.20446  23827977.7174   23827983.0604   23827977.032
        45.0004         41.0004
  -7093133.59148  -5457972.05147  23126972.5744   23126972.3614   23126973.624
        48.0004         43.0004
 -18279125.34548 -14165258.32648  21389779.2404   21389778.6554   21389779.919
        53.0004         48.0004
 -20322905.68449 -15747130.71148  20845352.9644   20845353.8804   20845353.219
        54.0004         49.0004
 -11497978.07348  -8891587.64547  22117239.5384   22117243.9954   22117239.208
        51.0004         46.0004
 -22912696.60149 -17799679.67048  20352838.0114   20352842.3934   20352837.802
        57.0004         53.0004
 17 10 13  0 50 30.0000000  0  8G15G17G25G02G19G12G06G24
    296789.27047    347214.51446  24643228.1424   24643230.9514   24643228.445
        43.0004         39.0004
  -7349327.05648  -5669748.94047  23508290.2334   23508292.0414   23508290.176
        48.0004         43.0004
  -5911172.52347  -4543129.88146  23811149.2154   23811155.0004   23811151.110
        45.0004         40.0004
  -7177672.16248  -5523846.27347  23110886.2994   23110886.7134   23110886.981
        48.0004         43.0004
 -18207076.72148 -14109116.52948  21403489.0094   21403489.9104   21403490.181
        53.0004         48.0004
 -20370643.67249 -15784329.14048  20836269.1764   20836269.4104   20836268.657
        54.0004         49.0004
 -11545950.14748  -8928968.44147  22108110.3684   22108114.9694   22108110.268
        51.0004         46.0004
 -22908516.71649 -17796422.62448  20353633.5514   20353637.4244   20353633.445
        57.0004         53.0004
 17 10 13  0 51  0.0000000  0  8G15G17G25G02G19G12G06G24
    395011.67747    423751.43246  24661919.9994   24661922.7124   24661919.110
        43.0004         39.0004
  -7259240.53947  -5599551.65447  23525433.5484   23525432.7854   23525433.507
        47.0004         43.0004
  -5999510.81747  -4611964.89246  23794336.8304   23794344.0504   23794337.751
        45.0004         40.0004
  -7261998.65048  -5589555.19747  23094840.0164   23094838.8294   23094840.457
        48.0004         43.0004
 -18134610.11148 -14052649.02648  21417279.3994   21417279.6344   21417280.420
        53.0004         48.0004
 -20418111.14749 -15821316.77248  20827236.0494   20827236.8574   20827236.043
        54.0004         49.0004
 -11593410.11948  -8965950.21847  22099079.0584   22099084.1354   22099079.316
        51.0004         47.0004
 -22903804.59249 -17792750.84648  20354530.3094   20354534.1174   20354530.140
        57.0004         53.0004
 17 10 13  0 51 30.0000000  0  8G15G17G25G02G19G12G06G24
    493244.96047    500296.84846  24680613.7534   24680615.9154   24680613.246
        44.0004         39.0004
  -7168993.35347  -5529229.15347  23542607.4224   23542607.1784   23542606.279
        47.0004         42.0004
  -6087751.45147  -4680723.79246  23777546.8834   23777553.3834   23777546.940
        45.0004         40.0004
  -7346103.91948  -5655091.75847  23078834.8654   23078833.1714   23078835.857
        48.0004         43.0004
 -18061721.30548 -13995852.55248  21431149.6894   21431149.4304   21431150.825
        53.0004         48.0004
 -20465301.57449 -15858088.52748  20818255.8694   20818257.1104   20818255.676
        54.0004         49.0004
 -11640349.55048  -9002526.39247  22090146.6704   22090152.0694   22090146.340
        51.0004         46.0004
 -22898554.17849 -17788659.61748  20355529.5494   20355533.5014   20355529.227
        57.0004         53.0004
 17 10 13  0 52  0.0000000  0  8G15G17G25G02G19G12G06G24
    591479.08647    576842.91946  24699305.9984   24699310.5594   24699306.356
        44.0004         39.0004
  -7078594.99447  -5458788.89047  23559809.7374   23559809.6724   23559809.882
        47.0004         43.0004
  -6175901.11047  -4749411.79546  23760773.4194   23760779.0074   23760773.941
        45.0004         41.0004
  -7429992.46748  -5720459.45747  23062871.1174   23062868.7614   23062871.454
        48.0004         43.0004
 -17988420.84348 -13938735.30948  21445098.2184   21445098.8544   21445099.159
        53.0004         48.0004
 -20512222.58449 -15894650.34248  20809327.4544   20809327.9894   20809327.001
        54.0004         49.0004
 -11686773.64848  -9038701.01347  22081313.0864   22081317.1264   22081313.168
        51.0004         46.0004
 -22892771.38249 -17784153.54548  20356629.8524   20356634.1224   20356629.593
        57.0004         53.0004
 17 10 13  0 52 30.0000000  0  8G15G17G25G02G19G12G06G24
    689717.67947    653392.49046  24718000.3924   24718003.5014   24718000.400
        44.0004         40.0004
  -6988040.56747  -5388226.98647  23577040.7114   23577041.9864   23577041.479
        47.0004         43.0004
  -6263952.22047  -4818023.02046  23744014.8894   23744022.8154   23744017.980
        45.0004         40.0004
  -7513655.01548  -5785651.04647  23046950.3204   23046951.1424   23046950.730
        48.0004         43.0004
 -17914704.09048 -13881293.68148  21459126.0844   21459125.7454   21459126.990
        52.0004         48.0004
 -20558865.26549 -15930995.28048  20800450.9144   20800452.1874   20800450.432
        54.0004         49.0004
 -11732673.37548  -9074467.01447  22072578.5574   22072582.5794   22072579.131
        51.0004         47.0004
 -22886449.78849 -17779227.63148  20357832.8414   20357836.8084   20357832.538
        57.0004         53.0004
 17 10 13  0 53  0.0000000  0  8G15G17G25G02G19G12G06G24
    787955.01247    729941.07946  24736695.2704   24736698.5294   24736695.435
        44.0004         39.0004
  -6897335.98347  -5317548.08247  23594301.8964   23594302.1444   23594301.796
        47.0004         42.0004
  -6351907.93447  -4886559.90646  23727278.4594   23727285.4454   23727279.116
        45.0004         40.0004
  -7597092.92847  -5850667.59147  23031071.8584   23031071.3824   23031073.398
        47.0004         42.0004
 -17840577.54848 -13823532.74348  21473231.7184   21473231.8324   21473232.830
        52.0004         48.0004
 -20605233.34549 -15967126.23348  20791627.7684   20791628.5134   20791627.768
        54.0004         49.0004
 -11778050.51248  -9109825.80347  22063942.7374   22063947.9394   22063942.991
        51.0004         47.0004
 -22879592.43849 -17773884.25548  20359137.5984   20359141.4664   20359137.734
        57.0004         53.0004
 17 10 13  0 53 30.0000000  0  8G15G17G25G02G19G12G06G24
    886187.19947    806485.63946  24755389.0954   24755389.9514   24755387.728
        44.0004         39.0004
  -6806484.05047  -5246754.36147  23611590.8024   23611591.7584   23611590.119
        47.0004         43.0004
  -6439768.66947  -4955022.79246  23710561.6774   23710566.9344   23710563.710
        45.0004         41.0004
  -7680304.31647  -5915507.64447  23015237.6434   23015238.3574   23015238.070
        47.0004         43.0004
 -17766044.50848 -13765455.03048  21487415.0194   21487415.7494   21487416.004
        53.0004         48.0004
 -20651327.58049 -16003043.81448  20782856.6874   20782857.2224   20782856.565
        54.0004         49.0004
 -11822904.01448  -9144776.55547  22055408.2294   22055413.5174   22055408.293
        51.0004         47.0004
 -22872199.77649 -17768123.73948  20360544.4464   20360548.5404   20360544.278
        57.0004         53.0004
 17 10 13  0 54  0.0000000  0  8G15G17G25G02G19G12G06G24
    984413.57147    883025.69446  24774081.1634   24774082.2424   24774079.407
        43.0004         39.0004
  -6715484.50247  -5175845.63747  23628907.1024   23628907.9944   23628906.656
        47.0004         43.0004
  -6527531.28647  -5023409.23046  23693860.3274   23693864.6064   23693861.864
        45.0004         41.0004
  -7763284.21347  -5980167.29847  22999447.2334   22999447.4784   22999447.484
        47.0004         43.0004
 -17691105.63148 -13707061.09248  21501675.0204   21501675.5114   21501675.744
        52.0004         48.0004
 -20697145.00949 -16038745.70248  20774138.1304   20774137.8284   20774137.518
        54.0004         49.0004
 -11867229.39848  -9179315.79247  22046973.0024   22046978.2244   22046972.738
        51.0004         47.0004
 -22864268.99449 -17761943.91348  20362053.6104   20362057.9224   20362053.302
        57.0004         53.0004
 17 10 13  0 54 30.0000000  0  8G15G17G25G02G19G12G06G24
   1082630.44647    959558.33646  24792770.8504   24792771.8104   24792772.137
        43.0004         39.0004
  -6624340.79747  -5104824.55847  23646250.0214   23646250.3064   23646250.181
        47.0004         42.0004
  -6615196.47547  -5091719.76346  23677178.0894   23677182.5684   23677178.484
        45.0004         40.0004
  -7846031.34648  -6044645.57147  22983701.5234   22983700.4584   22983701.708
        48.0004         43.0004
 -17615764.83448 -13648353.98147  21516011.6294   21516012.4474   21516012.663
        52.0004         47.0004
 -20742686.78449 -16074232.78348  20765471.7114   20765472.4944   20765472.253
        54.0004         49.0004
 -11911026.03748  -9213443.02447  22038639.1414   22038644.3654   22038638.962
        52.0004         47.0004
 -22855801.62049 -17755345.96848  20363665.0104   20363669.0064   20363664.878
        57.0004         53.0004
 17 10 13  0 55  0.0000000  0  8G15G17G25G02G19G12G06G24
   1180834.40347   1036080.88046  24811458.5894   24811457.3034   24811458.960
        44.0004         39.0004
  -6533055.07347  -5033692.82647  23663621.8454   23663622.5724   23663620.900
        47.0004         42.0004
  -6702764.09647  -5159954.23246  23660516.8524   23660518.6394   23660516.372
        45.0004         40.0004
  -7928543.21748  -6108940.55047  22968000.3604   22967999.8654   22968000.661
        48.0004         43.0004
 -17540025.15348 -13589336.04448  21530424.5334   21530425.7714   21530425.050
        52.0004         48.0004
 -20787952.51949 -16109504.77548  20756857.5554   20756858.3344   20756857.863
        54.0004         49.0004
 -11954292.39348  -9247157.04947  22030405.1214   22030409.6554   22030405.162
        51.0004         47.0004
 -22846797.36849 -17748329.67348  20365378.2064   20365382.4544   20365377.840
        57.0004         53.0004
 17 10 13  0 55 30.0000000  0  8G15G17G25G02G19G12G06G24
   1279026.69647   1112594.37346  24830141.5564   24830146.1964   24830142.641
        44.0004         39.0004
  -6441626.12947  -4962449.49147  23681020.6884   23681021.1404   23681020.146
        47.0004         43.0004
  -6790230.37147  -5228109.72846  23643869.5534   23643875.7954   23643869.855
        45.0004         41.0004
  -8010814.72248  -6173048.20647  22952343.3304   22952342.6684   22952344.709
        48.0004         43.0004
 -17463886.20448 -13530006.97948  21544913.3794   21544915.1574   21544914.259
        52.0004         48.0004
 -20832938.65849 -16144558.90348  20748296.9384   20748297.8254   20748296.305
        54.0004         49.0004
 -11997023.40848  -9280453.93647  22022273.7174   22022278.4424   22022273.637
        51.0004         47.0004
 -22837252.73049 -17740892.30248  20367194.6884   20367199.1474   20367194.142
        57.0004         53.0004
 17 10 13  0 56  0.0000000  0  8G15G17G25G02G19G12G06G24
   1377199.81147   1189092.90646  24848825.0814   24848828.3034   24848825.203
        44.0004         39.0004
  -6350060.20947  -4891099.44247  23698444.5624   23698445.5454   23698444.958
        47.0004         43.0004
  -6877598.76947  -5296188.93746  23627245.3064   23627249.9674   23627245.079
        45.0004         41.0004
  -8092847.00248  -6236969.46747  22936733.6854   22936733.3734   22936735.180
        48.0004         43.0004
 -17387354.54248 -13470371.91848  21559477.1964   21559477.4434   21559478.473
        52.0004         48.0004
 -20877648.66249 -16179397.86748  20739788.8734   20739790.3914   20739788.997
        54.0004         49.0004
 -12039221.24148  -9313335.35047  22014244.1994   22014248.1734   22014244.308
        51.0004         47.0004
 -22827171.63449 -17733036.90548  20369113.0914   20369116.9614   20369112.536
        57.0004         53.0004
 17 10 13  0 56 30.0000000  0  8G15G17G25G02G19G12G06G24
   1475353.12447   1265576.01546  24867500.8864   24867504.4214   24867500.919
        43.0004         39.0004
  -6258357.51947  -4819642.79247  23715894.9764   23715896.3894   23715894.857
        47.0004         43.0004
  -6964866.73847  -5364189.91346  23610637.7684   23610643.2004   23610638.380
        45.0004         41.0004
  -8174635.35848  -6300700.64547  22921169.6774   22921169.8764   22921170.987
        48.0004         43.0004
 -17310431.07348 -13410431.54448  21574115.0864   21574116.1774   21574116.007
        52.0004         48.0004
 -20922080.61049 -16214020.15448  20731333.5064   20731334.7234   20731333.480
        54.0004         49.0004
 -12080882.06848  -9345798.32147  22006316.4974   22006320.5104   22006315.557
        51.0004         47.0004
 -22816552.12649 -17724761.97548  20371133.6614   20371137.7854   20371133.467
        57.0004         53.0004
 17 10 13  0 57  0.0000000  0  8G15G17G25G02G19G12G06G24
   1573484.32347   1342041.87946  24886174.7414   24886178.5534   24886175.682
        43.0004         39.0004
  -6166519.75447  -4748080.89547  23733369.8874   23733371.6924   23733370.472
        47.0004         43.0004
  -7052033.32447  -5432111.94146  23594049.2974   23594054.7204   23594051.190
        45.0004         40.0004
  -8256177.11948  -6364239.65547  22905654.2134   22905651.9894   22905654.112
        48.0004         43.0004
 -17233118.58648 -13350188.04347  21588827.7474   21588827.8794   21588828.283
        52.0004         47.0004
 -20966233.14849 -16248424.71748  20722931.7824   20722932.1704   20722931.916
        54.0004         49.0004
 -12122003.80948  -9377841.22047  21998490.5764   21998495.2934   21998489.839
        51.0004         47.0004
 -22805393.26249 -17716066.76248  20373257.4554   20373261.1804   20373257.310
        57.0004         53.0004
 17 10 13  0 57 30.0000000  0  8G15G17G25G02G19G12G06G24
   1671590.74047   1418488.43946  24904843.5724   24904847.9934   24904845.094
        43.0004         38.0004
  -6074548.79247  -4676415.22747  23750872.8754   23750872.1274   23750871.609
        47.0004         42.0004
  -7139098.04347  -5499954.52346  23577483.1184   23577486.1774   23577483.178
        45.0004         40.0004
  -8337469.94348  -6427584.69347  22890183.1314   22890183.4094   22890184.286
        48.0004         43.0004
 -17155419.39048 -13289643.21147  21603613.3874   21603613.5514   21603613.946
        52.0004         47.0004
 -21010106.24949 -16282611.53548  20714583.0504   20714583.8264   20714583.060
        54.0004         49.0004
 -12162584.64648  -9409462.63847  21990768.7544   21990773.8074   21990769.134
        51.0004         47.0004
 -22793695.72749 -17706951.79948  20375483.4894   20375487.3764   20375483.020
        57.0004         53.0004
 17 10 13  0 58  0.0000000  0  8G15G17G25G02G19G12G06G24
   1769668.65547   1494912.77946  24923508.2604   24923510.8784   24923508.634
        43.0004         38.0004
  -5982447.89847  -4604648.30647  23768397.5974   23768400.3994   23768398.223
        47.0004         42.0004
  -7226061.26947  -5567718.04146  23560934.0124   23560938.5354   23560933.775
        45.0004         41.0004
  -8418512.47748  -6490734.71947  22874761.1524   22874760.9084   22874761.247
        48.0004         43.0004
 -17077337.31848 -13228800.02447  21618471.9474   21618471.4094   21618472.572
        52.0004         47.0004
 -21053699.84749 -16316580.56248  20706287.4374   20706288.1474   20706287.413
        54.0004         49.0004
 -12202623.85948  -9440662.00647  21983149.8074   21983153.7514   21983149.921
        51.0004         47.0004
 -22781459.95349 -17697417.44048  20377812.0024   20377815.6594   20377811.996
        57.0004         53.0004
 17 10 13  0 58 30.0000000  0  8G15G17G25G02G19G12G06G24
   1867717.25547   1571314.29246  24942168.1714   24942170.2174   24942168.036
        42.0004         37.0004
  -5890216.94147  -4532780.02847  23785950.0214   23785950.7234   23785949.073
        47.0004         42.0004
  -7312920.45047  -5635400.48546  23544404.5674   23544410.4734   23544403.028
        45.0004         41.0004
  -8499300.02848  -6553686.04747  22859387.8524   22859386.9184   22859388.318
        48.0004         43.0004
 -16998872.96648 -13167658.96847  21633402.8094   21633402.9814   21633403.502
        52.0004         47.0004
 -21097012.01349 -16350330.29148  20698044.9944   20698045.9544   20698045.324
        54.0004         49.0004
 -12242117.65348  -9471436.36347  21975634.2304   21975638.6824   21975633.821
        52.0004         47.0004
 -22768683.51349 -17687461.79048  20380243.1104   20380246.9234   20380242.776
        57.0004         53.0004
 17 10 13  0 59  0.0000000  0  8G15G17G25G02G19G12G06G24
   1965731.31347   1647688.89146  24960817.9184   24960820.2704   24960817.595
        42.0004         37.0004
  -5797860.37147  -4460813.87347  23803523.7354   23803527.1344   23803524.244
        47.0004         42.0004
  -7399677.40147  -5703003.26246  23527896.0624   23527900.6244   23527896.469
        45.0004         41.0004
  -8579832.53748  -6616438.65147  22844063.1654   22844062.7504   22844063.790
        48.0004         43.0004
 -16920031.55748 -13106224.11047  21648405.6164   21648405.5074   21648407.308
        52.0004         47.0004
 -21140044.88949 -16383862.39448  20689856.4954   20689857.1134   20689856.205
        54.0004         50.0004
 -12281066.68748  -9501786.25347  21968221.8224   21968227.1494   21968221.747
        52.0004         47.0004
 -22755369.21049 -17677087.01348  20382776.4884   20382780.6964   20382776.608
        57.0004         53.0004
 17 10 13  0 59 30.0000000  0  8G15G17G25G02G19G12G06G24
   2063708.84547   1724035.00446  24979462.6404   24979465.6794   24979463.335
        42.0004         37.0004
  -5705379.30247  -4388750.69847  23821122.7654   23821122.6994   23821122.761
        46.0004         42.0004
  -7486330.59647  -5770525.18446  23511406.0854   23511410.4954   23511406.338
        46.0004         41.0004
  -8660106.53748  -6678989.81547  22828787.6354   22828787.7614   22828788.440
        48.0004         44.0004
 -16840814.86648 -13044496.81747  21663480.7444   21663480.1744   21663481.449
        52.0004         47.0004
 -21182796.85249 -16417175.60648  20681721.4144   20681722.2314   20681721.055
        54.0004         50.0004
 -12319468.44348  -9531709.67847  21960915.1244   21960919.4314   21960914.866
        52.0004         47.0004
 -22741516.17749 -17666292.45448  20385412.9304   20385416.7034   20385412.813
        57.0004         52.0004
 17 10 13  1  0  0.0000000  0  9G15G17G25G02G19G12G29G06G24
   2161651.05847   1800353.59746  24998101.1514   24998104.0594   24998101.161
        42.0004         37.0004
  -5612772.51347  -4316589.58047  23838745.7224   23838746.3804   23838744.996
        47.0004         42.0004
  -7572876.15847  -5837963.24046  23494937.9814   23494942.8984   23494939.083
        46.0004         41.0004
  -8740116.36948  -6741335.12447  22813563.6034   22813562.5604   22813563.820
        48.0004         44.0004
 -16761222.68748 -12982476.93047  21678626.0844   21678626.4984   21678627.495
        52.0004         47.0004
 -21225264.40949 -16450267.19348  20673639.5524   20673640.8204   20673639.765
        54.0004         50.0004
  -2836626.91447  -2187343.88946  25169376.6074   25169378.0314   25169377.054
        42.0004         37.0004
 -12357317.89848  -9561202.73847  21953712.4064   21953716.4714   21953711.786
        52.0004         47.0004
 -22727120.76349 -17655075.25148  20388151.8374   20388155.9044   20388151.371
        57.0004         52.0004
 17 10 13  1  0 30.0000000  0 10G15G17G25G02G19G32G12G29G06G24
   2259548.86347   1876637.58546  25016729.9204   25016730.4694   25016730.489
        42.0004         37.0004
  -5520048.02847  -4244336.71747  23856390.0704   23856392.1544   23856389.832
        47.0004         42.0004
  -7659319.84847  -5905321.95746  23478487.4804   23478491.3904   23478488.480
        46.0004         41.0004
  -8819865.82348  -6803477.55747  22798387.1214   22798386.4244   22798388.053
        49.0004         44.0004
 -16681263.67648 -12920171.19147  21693841.6904   21693841.6364   21693842.338
        52.0004         47.0004
   -844457.57647   -641585.72846  24541066.9644   24541070.1124   24541066.587
        47.0004         39.0004
 -21267453.25249 -16483141.60348  20665611.4004   20665612.8254   20665611.246
        54.0004         50.0004
  -2946590.95847  -2273030.16946  25148450.2174   25148453.1574   25148451.371
        42.0004         37.0004
 -12394619.65648  -9590269.03047  21946614.0844   21946618.3394   21946614.056
        52.0004         47.0004
 -22712189.03549 -17643440.15048  20390993.5354   20390997.3954   20390993.560
        57.0004         52.0004
 17 10 13  1  1  0.0000000  0 10G15G17G25G02G19G32G12G29G06G24
   2357403.40547   1952887.88846  25035353.6884   25035351.3044   25035353.193
        42.0004         37.0004
  -5427203.71147  -4171990.50747  23874058.5754   23874059.6464   23874057.830
        47.0004         42.0004
  -7745656.34047  -5972597.09846  23462058.5324   23462062.0744   23462057.299
        46.0004         41.0004
  -8899347.70848  -6865411.48347  22783261.0634   22783260.6674   22783262.595
        49.0004         44.0004
 -16600936.04148 -12857578.23047  21709128.1164   21709127.8724   21709128.131
        52.0004         47.0004
   -891210.12047   -678016.28746  24532170.3004   24532174.9194   24532169.608
        44.0004         38.0004
 -21309359.03049 -16515795.44648  20657637.0084   20657637.8604   20657637.154
        54.0004         50.0004
  -3056480.70946  -2358658.56046  25127541.5894   25127542.9944   25127540.612
        41.0004         37.0004
 -12431367.42448  -9618903.64747  21939620.7084   21939626.0494   21939620.547
        52.0004         47.0004
 -22696717.17149 -17631384.15948  20393937.7344   20393941.7104   20393937.773
        57.0004         52.0004
 17 10 13  1  1 30.0000000  0 10G15G17G25G02G19G32G12G29G06G24
   2455211.89747   2029102.27046  25053965.7934   25053963.5654   25053964.917
        42.0004         37.0004
  -5334242.08047  -4099552.87047  23891749.9784   23891750.2184   23891748.090
        47.0004         42.0004
  -7831885.97647  -6039788.99646  23445648.5744   23445653.7154   23445649.590
        46.0004         41.0004
  -8978560.36948  -6927135.62047  22768188.5384   22768188.4134   22768189.329
        49.0004         44.0004
 -16520243.80948 -12794701.16247  21724483.1054   21724483.5024   21724483.956
        52.0004         47.0004
   -937453.06847   -714049.81546  24523371.8714   24523376.0464   24523369.232
        44.0004         39.0004
 -21350981.21249 -16548228.30848  20649716.4624   20649717.4764   20649716.238
        54.0004         50.0004
  -3166295.61047  -2444228.61746  25106643.6054   25106643.6554   25106643.310
        42.0004         37.0004
 -12467560.57648  -9647106.08747  21932733.8244   21932737.9144   21932733.086
        52.0004         47.0004
 -22680705.31449 -17618907.39648  20396984.6454   20396988.9024   20396984.564
        57.0004         53.0004
 17 10 13  1  2  0.0000000  0 10G15G17G25G02G19G32G12G29G06G24
   2552981.04447   2105286.02046  25072569.3344   25072570.1414   25072568.909
        42.0004         37.0004
  -5241156.11547  -4027018.35746  23909462.1544   23909464.2734   23909461.123
        46.0004         41.0004
  -7917998.84847  -6106889.92746  23429260.8614   23429268.6434   23429259.818
        46.0004         41.0004
  -9057492.14848  -6988640.89847  22753167.2494   22753167.1404   22753168.333
        49.0004         44.0004
 -16439180.43648 -12731534.89447  21739908.8254   21739908.8744   21739909.805
        52.0004         47.0004
   -983175.92747   -749677.97246  24514670.8694   24514674.9804   24514669.490
        44.0004         39.0004
 -21392310.34149 -16580432.82448  20641852.3624   20641853.0744   20641852.001
        54.0004         50.0004
  -3276024.56546  -2529731.68046  25085761.6234   25085763.9044   25085761.825
        41.0004         37.0004
 -12503188.14448  -9674867.81347  21925954.3484   21925958.2204   21925953.530
        52.0004         47.0004
 -22664144.44549 -17606002.82548  20400136.1734   20400140.0364   20400136.187
        57.0004         53.0004
 17 10 13  1  2 30.0000000  0 10G15G17G25G02G19G32G12G29G06G24
   2650688.81547   2181421.93646  25091159.5704   25091163.7354   25091158.021
        42.0004         37.0004
  -5147966.87347  -3954403.37346  23927195.6264   23927195.7564   23927195.921
        46.0004         41.0004
  -8004013.52947  -6173914.30547  23412893.8794   23412900.1674   23412894.591
        46.0004         42.0004
  -9136160.05148  -7049940.56547  22738198.9844   22738196.4984   22738197.620
        49.0004         44.0004
 -16357767.53048 -12668096.24847  21755401.7324   21755401.8054   21755402.616
        52.0004         47.0004
  -1028396.42447   -784914.75546  24506065.0814   24506069.9314   24506064.638
        44.0004         39.0004
 -21433365.58349 -16612423.91048  20634039.6034   20634040.6144   20634039.571
        54.0004         50.0004
  -3385685.07246  -2615181.42146  25064894.4354   25064896.2304   25064896.236
        41.0004         37.0004
 -12538267.80448  -9702202.58847  21919278.3654   21919284.2904   21919277.877
        52.0004         47.0004
 -22647053.75349 -17592685.41248  20403388.2814   20403392.4694   20403388.169
        57.0004         52.0004
 17 10 13  1  3  0.0000000  0 10G15G17G25G02G19G32G12G29G06G24
   2748347.12146   2257519.28746  25109743.7944   25109748.5914   25109743.297
        41.0004         37.0004
  -5054661.25047  -3881697.69346  23944950.6154   23944952.0154   23944950.302
        46.0004         41.0004
  -8089914.54847  -6240850.14747  23396548.4114   23396553.7024   23396549.001
        46.0004         42.0004
  -9214546.63448  -7111020.99447  22723280.4864   22723281.8814   22723281.994
        49.0004         44.0004
 -16275993.03848 -12604375.86047  21770962.6194   21770962.6994   21770963.564
        52.0004         47.0004
  -1073098.43547   -819747.47846  24497558.6764   24497563.4404   24497557.923
        44.0004         39.0004
 -21474131.52649 -16644189.57548  20626282.0074   20626282.9944   20626281.370
        54.0004         50.0004
  -3495261.08146  -2700565.29246  25044042.4094   25044044.8474   25044042.993
        41.0004         36.0004
 -12572783.09148  -9729097.61647  21912711.0584   21912714.4614   21912710.722
        52.0004         47.0004
 -22629418.13149 -17578943.37548  20406743.9274   20406748.3794   20406743.336
        57.0004         52.0004
 17 10 13  1  3 30.0000000  0 10G15G17G25G02G19G32G12G29G06G24
   2845943.47646   2333568.37046  25128314.8954   25128321.4874   25128314.971
        41.0004         37.0004
  -4961250.72847  -3808910.29046  23962727.1974   23962728.6614   23962726.150
        46.0004         41.0004
  -8175710.65747  -6307704.24047  23380221.9064   23380226.5804   23380220.287
        46.0004         42.0004
  -9292658.87548  -7171887.66547  22708416.6574   22708417.1604   22708418.235
        49.0004         44.0004
 -16193869.19448 -12540383.24947  21786590.6724   21786590.5194   21786591.472
        52.0004         47.0004
  -1117290.02147   -854182.46746  24489150.2784   24489152.9694   24489149.256
        44.0004         39.0004
 -21514616.39849 -16675736.21948  20618577.9404   20618578.4834   20618577.625
        54.0004         50.0004
  -3604760.24946  -2785889.31346  25023205.7314   25023207.2084   25023203.277
        41.0004         36.0004
 -12606741.89948  -9755558.99847  21906248.1954   21906252.2264   21906248.622
        52.0004         47.0004
 -22611247.42849 -17564784.39548  20410202.1804   20410206.1454   20410201.945
        57.0004         52.0004
 17 10 13  1  4  0.0000000  0 10G15G17G25G02G19G32G12G29G06G24
   2943482.93647   2409573.12946  25146879.3554   25146879.5614   25146879.645
        42.0004         37.0004
  -4867730.71147  -3736037.55646  23980522.3264   23980523.8194   23980522.623
        45.0004         41.0004
  -8261394.63347  -6374470.96047  23363916.7894   23363920.8044   23363917.369
        47.0004         42.0004
  -9370487.38848  -7232533.27047  22693607.1434   22693607.4574   22693607.786
        49.0004         45.0004
 -16111391.93348 -12476115.25947  21802285.2214   21802285.7464   21802285.250
        52.0004         47.0004
  -1160963.25547   -888213.57646  24480838.7544   24480842.3434   24480838.023
        44.0004         39.0004
 -21554813.54049 -16707058.65748  20610928.4044   20610929.1544   20610928.344
        54.0004         50.0004
  -3714174.50446  -2871147.18946  25002385.9854   25002387.3074   25002384.293
        41.0004         37.0004
 -12640136.08248  -9781580.41047  21899893.3714   21899898.5104   21899893.031
        52.0004         47.0004
 -22592535.31949 -17550203.53648  20413762.8234   20413767.0574   20413762.592
        57.0004         53.0004
 17 10 13  1  4 30.0000000  0 10G15G17G25G02G19G32G12G29G06G24
   3040961.90847   2485530.76346  25165427.9964   25165429.0694   25165428.008
        42.0004         37.0004
  -4774104.01547  -3663081.68746  23998339.8854   23998340.8784   23998339.527
        46.0004         41.0004
  -8346966.65447  -6441150.46647  23347631.3444   23347639.1864   23347631.431
        47.0004         42.0004
  -9448031.06248  -7292956.89547  22678850.7404   22678849.7974   22678851.628
        49.0004         44.0004
 -16028564.90048 -12411574.69847  21818046.0544   21818046.1764   21818047.372
        51.0004         47.0004
  -1204117.75047   -921840.46146  24472626.8284   24472630.6224   24472626.675
        43.0004         39.0004
 -21594723.73449 -16738157.51548  20603333.6614   20603334.8284   20603333.690
        54.0004         50.0004
  -3823503.13146  -2956338.33746  24981580.8354   24981582.2164   24981581.176
        41.0004         36.0004
 -12672964.88848  -9807161.28747  21893646.0344   21893651.7314   21893645.554
        52.0004         47.0004
 -22573282.36149 -17535201.23748  20417426.2664   20417430.7354   20417426.221
        57.0004         52.0004
 17 10 13  1  5  0.0000000  0 10G15G17G25G02G19G32G12G29G06G24
   3138374.45247   2561436.62446  25183966.2544   25183966.6184   25183965.098
        42.0004         37.0004
  -4680375.13047  -3590046.17647  24016177.9654   24016176.0694   24016176.576
        46.0004         42.0004
  -8432428.62847  -6507744.18447  23331369.5524   23331375.0204   23331369.870
        47.0004         43.0004
  -9525289.67448  -7353158.39447  22664148.2154   22664147.6944   22664149.011
        49.0004         44.0004
 -15945393.76948 -12346766.02347  21833872.5034   21833873.5324   21833873.713
        51.0004         47.0004
  -1246754.82047   -955064.13646  24464512.9724   24464517.7164   24464512.779
        43.0004         39.0004
 -21634349.20349 -16769034.50148  20595793.2074   20595794.2404   20595793.047
        54.0004         50.0004
  -3932747.44946  -3041463.77446  24960792.0984   24960796.0574   24960791.707
        41.0004         37.0004
 -12705229.63248  -9832302.61947  21887506.6044   21887511.2454   21887506.662
        52.0004         47.0004
 -22553491.49949 -17519779.80248  20421192.7324   20421196.7684   20421192.438
        57.0004         52.0004
 17 10 13  1  5 30.0000000  0 10G15G17G25G02G19G32G12G29G06G24
   3235721.86947   2637291.70946  25202489.5354   25202492.0764   25202490.056
        42.0004         38.0004
  -4586542.39147  -3516929.75346  24034031.8224   24034031.4544   24034031.978
        46.0004         41.0004
  -8517776.56247  -6574249.04647  23315128.4194   23315132.8004   23315129.441
        47.0004         42.0004
  -9602257.32548  -7413133.16247  22649502.4914   22649502.1394   22649504.519
        49.0004         45.0004
 -15861877.63848 -12281688.51347  21849764.5524   21849766.0834   21849765.444
        51.0004         46.0004
  -1288869.80347   -987881.02446  24456499.7414   24456503.4804   24456499.144
        44.0004         39.0004
 -21673685.52649 -16799686.17448  20588307.9414   20588308.4544   20588307.774
        54.0004         50.0004
  -4041902.02347  -3126519.29046  24940019.2734   24940023.8394   24940019.140
        42.0004         37.0004
 -12736925.36248  -9857000.56947  21881474.5924   21881480.2534   21881474.368
        52.0004         47.0004
 -22533159.83549 -17503936.95348  20425061.8514   20425065.6294   20425061.475
        57.0004         52.0004
 17 10 13  1  6  0.0000000  0 10G15G17G25G02G19G32G12G29G06G24
   3332998.97247   2713092.02346  25221001.2484   25221002.2744   25221001.054
        42.0004         37.0004
  -4492610.33047  -3443735.95946  24051906.0084   24051906.4384   24051906.372
        46.0004         41.0004
  -8603012.45547  -6640666.59747  23298909.7544   23298913.2954   23298909.496
        47.0004         42.0004
  -9678934.66748  -7472881.73947  22634912.1084   22634911.2874   22634912.267
        49.0004         45.0004
 -15778021.63248 -12216346.17047  21865722.1754   21865723.0704   21865723.299
        51.0004         47.0004
  -1330464.15647  -1020292.25546  24448584.6724   24448586.0964   24448584.185
        44.0004         39.0004
 -21712735.14549 -16830114.44248  20580876.8114   20580877.7524   20580876.905
        54.0004         50.0004
  -4150967.95947  -3211505.75246  24919266.0474   24919269.2104   24919263.622
        42.0004         37.0004
 -12768053.29948  -9881256.09247  21875551.9244   21875556.2794   21875551.238
        52.0004         47.0004
 -22512289.71649 -17487674.53148  20429033.3194   20429037.3454   20429032.904
        57.0004         52.0004
 17 10 13  1  6 30.0000000  0 10G15G17G25G02G19G32G12G29G06G24
   3430203.28747   2788835.65446  25239497.6344   25239501.3154   25239495.739
        42.0004         37.0004
  -4398580.39247  -3370465.89146  24069799.2264   24069800.3084   24069799.995
        46.0004         41.0004
  -8688135.07247  -6706995.88447  23282709.7444   23282715.1964   23282711.815
        47.0004         42.0004
  -9755318.43048  -7532401.55747  22620375.6054   22620375.3264   22620375.904
        49.0004         45.0004
 -15693827.91848 -12150740.68047  21881744.4404   21881744.6814   21881744.755
        51.0004         47.0004
  -1371536.13247  -1052296.41246  24440768.8524   24440771.9834   24440768.251
        43.0004         38.0004
 -21751496.95749 -16860318.45248  20573500.8824   20573501.8154   20573500.144
        54.0004         50.0004
  -4259943.24147  -3296421.55146  24898526.9364   24898531.8654   24898529.107
        42.0004         37.0004
 -12798611.48248  -9905067.64547  21869736.4114   21869740.7494   21869735.945
        52.0004         47.0004
 -22490881.11749 -17470992.51148  20433107.0834   20433111.4604   20433106.622
        57.0004         53.0004
 17 10 13  1  7  0.0000000  0 10G15G17G25G02G19G32G12G29G06G24
   3527334.04547   2864521.97246  25257982.8174   25257981.9634   25257981.562
        42.0004         37.0004
  -4304452.57947  -3297119.55246  24087710.3184   24087712.9284   24087711.778
        46.0004         41.0004
  -8773142.18947  -6773235.19947  23266533.2524   23266538.7234   23266534.179
        47.0004         42.0004
  -9831404.73548  -7591689.55647  22605896.8314   22605896.7454   22605898.033
        49.0004         45.0004
 -15609297.97348 -12084873.16947  21897829.3934   21897829.9074   21897830.451
        51.0004         46.0004
  -1412082.97647  -1083891.34346  24433053.2894   24433055.9294   24433053.437
        43.0004         39.0004
 -21789969.00849 -16890296.66448  20566180.2024   20566180.5164   20566180.018
        54.0004         50.0004
  -4368824.93547  -3381264.41446  24877808.6254   24877812.9024   24877809.591
        42.0004         37.0004
 -12828596.97448  -9928432.94447  21864030.6064   21864035.7314   21864030.169
        52.0004         47.0004
 -22468932.29349 -17453889.53548  20437283.9204   20437288.0844   20437284.017
        57.0004         53.0004
 17 10 13  1  7 30.0000000  0 10G15G17G25G02G19G32G12G29G06G24
   3624385.88647   2940146.76846  25276452.6054   25276449.8684   25276452.941
        42.0004         37.0004
  -4210232.26247  -3223701.11446  24105638.6754   24105641.4324   24105639.802
        45.0004         41.0004
  -8858035.94447  -6839386.18447  23250379.2304   23250385.0254   23250379.550
        47.0004         42.0004
  -9907193.94948  -7650746.07747  22591475.3024   22591474.3994   22591475.090
        49.0004         45.0004
 -15524437.22748 -12018747.91947  21913978.0174   21913980.0324   21913979.299
        51.0004         47.0004
  -1452106.39347  -1115078.39446  24425437.1614   24425439.9574   24425436.791
        44.0004         39.0004
 -21828153.88549 -16920051.11248  20558913.9584   20558913.9424   20558913.582
        54.0004         50.0004
  -4477614.33347  -3466035.39746  24857106.5444   24857108.4534   24857107.199
        42.0004         37.0004
 -12858011.23848  -9951353.13248  21858433.5224   21858438.2684   21858432.678
        52.0004         48.0004
 -22446446.54049 -17436368.18448  20441562.5304   20441566.7124   20441561.741
        57.0004         52.0004
 17 10 13  1  8  0.0000000  0 10G15G17G25G02G19G32G12G29G06G24
   3721361.22647   3015711.99546  25294903.8794   25294906.8894   25294904.274
        42.0004         37.0004
  -4115916.23147  -3150208.12346  24123587.5264   24123588.8954   24123587.080
        45.0004         41.0004
  -8942810.88847  -6905444.55747  23234246.9454   23234250.8504   23234246.135
        47.0004         42.0004
  -9982679.01548  -7709565.59747  22577110.0564   22577110.7544   22577110.150
        49.0004         45.0004
 -15439243.71748 -11952363.35847  21930189.6584   21930190.9864   21930190.704
        51.0004         46.0004
  -1491600.40747  -1145852.94346  24417920.7384   24417924.3174   24417921.263
        44.0004         39.0004
 -21866046.36149 -16949577.71748  20551703.1064   20551703.8484   20551703.019
        54.0004         50.0004
  -4586305.04647  -3550729.41646  24836425.3084   24836427.3254   24836425.953
        42.0004         37.0004
 -12886848.13148  -9973823.42147  21852945.7424   21852950.4534   21852945.523
        52.0004         47.0004
 -22423419.40549 -17418424.96948  20445944.4754   20445948.7064   20445944.299
        57.0004         52.0004
 17 10 13  1  8 30.0000000  0 10G15G17G25G02G19G32G12G29G06G24
   3818252.47647   3091211.64346  25313341.0544   25313343.3454   25313341.626
        42.0004         37.0004
  -4021511.58647  -3076646.06246  24141550.3904   24141552.2994   24141551.630
        45.0004         41.0004
  -9027471.30947  -6971413.71647  23218137.5604   23218140.2984   23218137.256
        47.0004         42.0004
 -10057862.50548  -7768150.12547  22562803.9624   22562803.6814   22562803.969
        50.0004         45.0004
 -15353725.10548 -11885725.48847  21946464.5654   21946464.7554   21946464.988
        51.0004         47.0004
  -1530568.81747  -1176217.96446  24410505.6954   24410510.0974   24410504.743
        43.0004         39.0004
 -21903650.67049 -16978879.76648  20544547.6444   20544547.9704   20544547.247
        54.0004         50.0004
  -4694900.68347  -3635349.35246  24815760.9284   24815760.5204   24815760.454
        42.0004         37.0004
 -12915111.31048  -9995846.65647  21847567.2034   21847571.8134   21847567.376
        52.0004         47.0004
 -22399855.71349 -17400063.65748  20450428.7494   20450432.6474   20450428.452
        57.0004         52.0004
 17 10 13  1  9  0.0000000  0 10G15G17G25G02G19G32G12G29G06G24
   3915059.59847   3166645.78146  25331763.3974   25331766.0454   25331763.692
        42.0004         37.0004
  -3927016.96047  -3003013.88046  24159534.2254   24159536.4554   24159533.743
        45.0004         40.0004
  -9112013.57047  -7037290.79847  23202048.2394   23202051.7294   23202049.100
        47.0004         42.0004
 -10132739.10148  -7826495.52047  22548555.0334   22548555.2484   22548555.272
        49.0004         45.0004
 -15267881.19448 -11818834.13147  21962799.5604   21962800.0794   21962800.530
        51.0004         47.0004
  -1569007.66847  -1206170.35146  24403190.4104   24403193.7514   24403190.632
        43.0004         39.0004
 -21940962.95649 -17007954.27348  20537447.2064   20537447.3734   20537446.990
        55.0004         50.0004
  -4803396.84747  -3719891.80546  24795114.8934   24795115.1864   24795115.379
        42.0004         37.0004
 -12942796.56748 -10017419.57047  21842299.3604   21842303.1494   21842299.075
        52.0004         47.0004
 -22375753.00949 -17381282.32748  20455015.1454   20455019.0534   20455014.816
        57.0004         52.0004
 17 10 13  1  9 30.0000000  0 10G15G17G25G02G19G32G12G29G06G24
   4011780.30547   3242012.58346  25350169.6444   25350169.3344   25350169.001
        42.0004         37.0004
  -3832433.46847  -2929312.46046  24177533.3654   24177532.1494   24177532.637
        45.0004         40.0004
  -9196436.65947  -7103075.02747  23185983.5194   23185986.8304   23185984.945
        47.0004         42.0004
 -10207305.73048  -7884599.38547  22534365.7384   22534365.1934   22534365.663
        49.0004         45.0004
 -15181714.25548 -11751691.05347  21979196.5254   21979196.8084   21979197.504
        51.0004         47.0004
  -1606915.46947  -1235708.93246  24395978.1064   24395981.8314   24395977.800
        44.0004         39.0004
 -21977982.87149 -17036800.95348  20530402.0344   20530402.7674   20530402.248
        55.0004         50.0004
  -4911791.23747  -3804354.91546  24774484.2414   24774487.8084   24774485.760
        42.0004         37.0004
 -12969902.25848 -10038540.86447  21837141.2404   21837145.5194   21837141.359
        52.0004         47.0004
 -22351111.29449 -17362080.99348  20459704.4614   20459708.5814   20459704.382
        57.0004         52.0004
 17 10 13  1 10  0.0000000  0 10G15G17G25G02G19G32G12G29G06G24
   4108411.30247   3317309.47446  25368555.9664   25368559.7344   25368555.442
        42.0004         37.0004
  -3737765.38047  -2855545.11346  24195548.1754   24195548.5644   24195548.359
        45.0004         41.0004
  -9280741.38147  -7168766.99647  23169941.2794   23169944.9574   23169941.306
        47.0004         43.0004
 -10281561.72948  -7942461.16747  22520233.6344   22520234.8304   22520234.501
        49.0004         45.0004
 -15095228.45248 -11684299.51347  21995654.2284   21995654.3594   21995654.667
        51.0004         46.0004
  -1644292.66347  -1264834.01946  24388864.7134   24388869.0134   24388865.118
        44.0004         39.0004
 -22014711.85749 -17065420.93748  20523412.5764   20523413.8114   20523412.818
        54.0004         50.0004
  -5020084.17346  -3888738.93746  24753878.2694   24753878.4734   24753877.205
        41.0004         37.0004
 -12996428.60648 -10059210.73147  21832093.8954   21832097.9174   21832093.179
        52.0004         47.0004
 -22325932.40549 -17342461.08748  20464496.0134   20464499.8064   20464495.876
        57.0004         52.0004
 17 10 13  1 10 30.0000000  0 10G15G17G25G02G19G32G12G29G06G24
   4204948.68446   3392533.34446  25386926.7334   25386930.3784   25386925.482
        41.0004         37.0004
  -3643014.62847  -2781713.35346  24213577.8884   24213577.9784   24213578.999
        45.0004         40.0004
  -9364927.68647  -7234366.68947  23153921.5684   23153926.7584   23153920.765
        47.0004         43.0004
 -10355505.62648  -8000079.77447  22506163.0094   22506163.2504   22506162.962
        49.0004         45.0004
 -15008427.30848 -11616662.25547  22012172.0844   22012172.4954   22012172.851
        51.0004         46.0004
  -1681138.87147  -1293545.37946  24381852.8914   24381855.8294   24381852.510
        44.0004         39.0004
 -22051149.94549 -17093814.25448  20516479.0624   20516479.8064   20516479.036
        55.0004         50.0004
  -5128274.75046  -3973043.26246  24733289.3524   24733291.9884   24733288.092
        41.0004         36.0004
 -13022375.11448 -10079428.76647  21827155.8554   21827160.3154   21827155.401
        52.0004         47.0004
 -22300217.30749 -17322423.35748  20469388.9674   20469393.4084   20469388.727
        57.0004         52.0004
 17 10 13  1 11  0.0000000  0 10G15G17G25G02G19G32G12G29G06G24
   4301392.62047   3467684.47146  25405278.7424   25405283.1934   25405279.659
        42.0004         37.0004
  -3548181.06847  -2707817.05346  24231625.5944   24231627.2384   24231624.593
        45.0004         40.0004
  -9448992.89147  -7299872.06347  23137923.3034   23137928.5064   23137924.854
        47.0004         43.0004
 -10429133.05848  -8057451.80147  22492153.5504   22492153.1764   22492153.720
        50.0004         45.0004
 -14921311.50848 -11548779.81647  22028749.5574   22028749.4404   22028750.574
        51.0004         46.0004
  -1717451.17047  -1321840.68146  24374942.1454   24374946.4674   24374942.260
        43.0004         38.0004
 -22087293.78249 -17121978.28148  20509601.1684   20509601.6964   20509600.886
        55.0004         50.0004
  -5236359.35446  -4057265.00246  24712721.1894   24712724.4944   24712720.103
        41.0004         36.0004
 -13047738.57248 -10099192.49247  21822330.0254   21822333.8654   21822329.849
        52.0004         47.0004
 -22273964.54549 -17301966.66948  20474384.8064   20474388.9644   20474384.471
        57.0004         52.0004
 17 10 13  1 11 30.0000000  0 10G15G17G25G02G19G32G12G29G06G24
   4397740.00847   3542760.34546  25423615.9154   25423616.6464   25423614.208
        42.0004         37.0004
  -3453266.70147  -2633857.82046  24249686.9794   24249685.6814   24249686.270
        45.0004         40.0004
  -9532936.38147  -7365282.55247  23121949.1944   23121955.1194   23121950.540
        47.0004         43.0004
 -10502441.61148  -8114575.31647  22478202.5354   22478203.0194   22478203.661
        50.0004         45.0004
 -14833883.75348 -11480654.28147  22045387.2334   22045387.3394   22045387.624
        51.0004         46.0004
  -1753228.50347  -1349719.16846  24368133.6104   24368136.9334   24368133.508
        43.0004         38.0004
 -22123144.26949 -17149913.72548  20502779.0674   20502779.4854   20502778.785
        55.0004         50.0004
  -5344336.56946  -4141403.05946  24692175.6084   24692177.3714   24692174.491
        41.0004         37.0004
 -13072517.88748 -10118501.02547  21817613.8664   21817617.7094   21817613.242
        52.0004         47.0004
 -22247174.45749 -17281091.28648  20479482.9404   20479486.8854   20479482.823
        57.0004         52.0004
 17 10 13  1 12  0.0000000  0 10G15G17G25G02G19G32G12G29G06G24
   4493986.88846   3617757.91646  25441929.3834   25441930.4664   25441927.918
        41.0004         37.0004
  -3358274.56647  -2559837.98546  24267762.8114   24267761.2484   24267762.424
        45.0004         40.0004
  -9616758.73848  -7430598.64647  23105998.7174   23106003.5904   23105999.269
        48.0004         43.0004
 -10575430.22248  -8171449.54947  22464313.8574   22464313.8084   22464314.110
        50.0004         45.0004
 -14746148.15148 -11412288.87247  22062082.8464   22062081.5584   22062083.146
        51.0004         46.0004
  -1788471.20747  -1377181.04146  24361429.5874   24361431.6784   24361428.898
        43.0004         39.0004
 -22158701.19549 -17177620.41448  20496012.0914   20496013.1514   20496012.535
        54.0004         50.0004
  -5452206.45746  -4225457.51046  24671648.6204   24671649.1614   24671647.359
        41.0004         37.0004
 -13096713.15848 -10137354.46747  21813009.8174   21813014.5684   21813010.102
        52.0004         47.0004
 -22219848.41149 -17259798.26948  20484682.8614   20484686.7094   20484682.805
        57.0004         52.0004
 17 10 13  1 12 30.0000000  0 10G15G17G25G02G19G32G12G29G06G24
   4590133.50946   3692677.34146  25460225.4684   25460228.5284   25460225.632
        41.0004         36.0004
  -3263204.01347  -2485757.04546  24285852.8184   24285856.2364   24285853.775
        45.0004         40.0004
  -9700456.92348  -7495818.00147  23090070.7614   23090076.1574   23090072.200
        48.0004         43.0004
 -10648094.16248  -8228070.79947  22450485.4714   22450485.5384   22450486.590
        50.0004         45.0004
 -14658104.94348 -11343683.76447  22078837.1164   22078837.2614   22078838.091
        51.0004         46.0004
  -1823176.11347  -1404223.85346  24354824.4724   24354828.1754   24354823.073
        43.0004         39.0004
 -22193962.24349 -17205096.55348  20489302.4514   20489303.0764   20489302.231
        54.0004         50.0004
  -5559964.87547  -4309425.08346  24651142.3674   24651146.4794   24651141.478
        42.0004         37.0004
 -13120321.04348 -10155750.20047  21808516.8304   21808522.2934   21808516.783
        52.0004         47.0004
 -22191984.80849 -17238086.37848  20489985.2404   20489989.2894   20489985.039
        57.0004         52.0004
 17 10 13  1 13  0.0000000  0 10G15G17G25G02G19G32G12G29G06G24
   4686172.19446   3767512.65546  25478501.3504   25478502.3894   25478502.370
        41.0004         37.0004
  -3168061.67547  -2411620.18346  24303958.8264   24303961.4854   24303958.640
        45.0004         40.0004
  -9784035.07848  -7560943.82847  23074166.4324   23074172.1194   23074167.802
        48.0004         43.0004
 -10720436.07248  -8284441.11347  22436719.6974   22436719.2444   22436719.425
        50.0004         45.0004
 -14569761.77048 -11274844.92247  22095646.7834   22095647.3954   22095648.259
        50.0004         46.0004
  -1857347.05547  -1430850.56346  24348322.8054   24348324.8214   24348322.408
        44.0004         39.0004
 -22228932.11449 -17232345.79948  20482648.0304   20482648.6834   20482647.695
        54.0004         50.0004
  -5667614.96947  -4393308.23946  24630657.8224   24630659.8534   24630657.930
        42.0004         37.0004
 -13143345.23448 -10173691.12447  21804136.1414   21804139.9524   21804135.950
        52.0004         47.0004
 -22163588.97749 -17215959.77048  20495388.6154   20495393.2824   20495388.294
        57.0004         52.0004
 17 10 13  1 13 30.0000000  0 10G15G17G25G02G19G32G12G29G06G24
   4782106.67947   3842266.78346  25496758.9384   25496759.4964   25496756.975
        42.0004         37.0004
  -3072843.89047  -2337424.51546  24322076.9014   24322079.3154   24322078.173
        45.0004         40.0004
  -9867486.49448  -7625970.87847  23058287.2664   23058290.4274   23058286.822
        48.0004         43.0004
 -10792447.73348  -8340554.08347  22423016.5294   22423015.5624   22423017.102
        50.0004         45.0004
 -14481115.42448 -11205769.85047  22112516.0204   22112515.5024   22112517.375
        50.0004         45.0004
  -1890977.11747  -1457055.84146  24341922.1454   24341926.3854   24341920.336
        44.0004         40.0004
 -22263603.38649 -17259362.36348  20476050.2674   20476051.2814   20476050.280
        55.0004         50.0004
  -5775149.65247  -4477101.48546  24610194.3044   24610196.5264   24610192.117
        42.0004         37.0004
 -13165778.63548 -10191171.68147  21799867.7294   21799870.6764   21799867.629
        52.0004         47.0004
 -22134655.27549 -17193414.03448  20500894.7874   20500898.5424   20500895.020
        57.0004         52.0004
 17 10 13  1 14  0.0000000  0 10G15G17G25G02G19G32G12G29G06G24
   4877930.08047   3916934.39046  25514992.5604   25514994.5144   25514989.921
        42.0004         37.0004
  -2977556.42447  -2263174.53546  24340210.2664   24340212.1284   24340210.734
        45.0004         40.0004
  -9950814.71448  -7690901.93447  23042428.4474   23042434.5044   23042430.212
        48.0004         43.0004
 -10864130.99748  -8396411.16447  22409376.2054   22409375.4354   22409376.330
        50.0004         45.0004
 -14392172.56148 -11136463.71547  22129441.9384   22129440.2534   22129442.775
        50.0004         46.0004
  -1924069.64047  -1482842.26146  24335625.5564   24335628.7234   24335624.354
        44.0004         39.0004
 -22297980.71249 -17286149.88648  20469508.3444   20469509.0364   20469508.279
        55.0004         50.0004
  -5882571.67247  -4560806.95146  24589751.4544   24589755.8054   24589750.973
        42.0004         37.0004
 -13187624.48648 -10208194.41147  21795709.6204   21795713.2174   21795709.489
        52.0004         47.0004
 -22105188.33749 -17170452.79048  20506502.1344   20506505.9604   20506501.738
        57.0004         52.0004
 17 10 13  1 14 30.0000000  0 10G15G17G25G02G19G32G12G29G06G24
   4973644.65646   3991517.18946  25533204.2094   25533207.1874   25533204.117
        41.0004         36.0004
  -2882196.59747  -2188868.16446  24358357.7904   24358355.8404   24358356.506
        45.0004         40.0004
 -10034014.73147  -7755733.09947  23026595.8574   23026602.5164   23026596.636
        47.0004         43.0004
 -10935479.53048  -8452007.41747  22395797.9654   22395798.0344   22395798.943
        50.0004         45.0004
 -14302931.66648 -11066925.33747  22146423.3074   22146423.5694   22146423.912
        50.0004         46.0004
  -1956619.68647  -1508205.91746  24329430.2394   24329433.6254   24329429.172
        43.0004         38.0004
 -22332059.27049 -17312704.60648  20463023.4654   20463024.3024   20463023.302
        55.0004         50.0004
  -5989875.11547  -4644420.01346  24569333.7914   24569335.1534   24569334.043
        42.0004         38.0004
 -13208877.55948 -10224755.22248  21791665.3044   21791670.1504   21791664.890
        52.0004         48.0004
 -22075184.89149 -17147073.49748  20512211.3364   20512215.9544   20512210.945
        57.0004         52.0004
 17 10 13  1 15  0.0000000  0 10G15G17G25G02G19G32G12G29G06G24
   5069242.54646   4066009.05946  25551397.5744   25551398.3484   25551397.731
        41.0004         36.0004
  -2786771.51947  -2114510.95046  24376513.2004   24376515.5124   24376515.159
        45.0004         40.0004
 -10117090.79248  -7820467.69347  23010788.8904   23010794.4084   23010788.531
        48.0004         43.0004
 -11006495.98348  -8507344.89747  22382284.8294   22382284.2244   22382285.089
        50.0004         45.0004
 -14213400.58548 -10997160.86747  22163461.5384   22163460.6214   22163461.958
        50.0004         46.0004
  -1988631.13747  -1533149.91846  24323338.1674   24323343.3424   24323336.494
        43.0004         38.0004
 -22365843.06649 -17339029.63948  20456594.6724   20456595.6744   20456594.597
        55.0004         50.0004
  -6097063.57847  -4727943.50446  24548936.0524   24548938.2894   24548933.947
        42.0004         37.0004
 -13229541.76948 -10240857.19348  21787733.5414   21787737.4954   21787733.537
        52.0004         48.0004
 -22044650.04249 -17123280.11648  20518022.0024   20518026.2044   20518021.594
        57.0004         52.0004
 17 10 13  1 15 30.0000000  0 10G15G17G25G02G19G32G12G29G06G24
   5164715.98646   4140403.95946  25569564.7214   25569566.5644   25569565.465
        41.0004         36.0004
  -2691287.85847  -2040108.08146  24394685.0244   24394685.6094   24394684.727
        44.0004         40.0004
 -10200047.33148  -7885109.15347  22995002.5884   22995007.3704   22995002.961
        48.0004         43.0004
 -11077182.85948  -8562425.57947  22368832.6794   22368833.0664   22368833.421
        50.0004         45.0004
 -14123587.09048 -10927176.31847  22180551.4954   22180551.6874   22180552.784
        51.0004         46.0004
  -2020108.40547  -1557677.67946  24317349.8464   24317353.0644   24317349.464
        44.0004         39.0004
 -22399336.95349 -17365128.77148  20450220.9134   20450221.6974   20450220.998
        55.0004         50.0004
  -6204140.70047  -4811380.23446  24528559.1694   24528561.5744   24528559.576
        42.0004         38.0004
 -13249621.34048 -10256503.59848  21783912.3234   21783916.4724   21783911.632
        52.0004         48.0004
 -22013589.44249 -17099077.05648  20523933.0434   20523936.8014   20523932.623
        57.0004         52.0004
 17 10 13  1 16  0.0000000  0 10G15G17G25G02G19G32G12G29G06G24
   5260078.39846   4214712.36746  25587711.6514   25587714.2264   25587712.561
        41.0004         36.0004
  -2595731.58047  -1965648.64246  24412870.1724   24412869.2284   24412868.589
        44.0004         40.0004
 -10282867.86348  -7949644.61747  22979243.1224   22979248.4014   22979245.558
        48.0004         44.0004
 -11147522.61848  -8617235.77247  22355448.7744   22355447.8314   22355448.998
        50.0004         46.0004
 -14033478.28948 -10856961.66347  22197698.9714   22197699.3734   22197699.969
        50.0004         46.0004
  -2051034.98547  -1581776.33746  24311464.7564   24311467.3834   24311465.278
        44.0004         39.0004
 -22432525.02149 -17390989.59448  20443905.2144   20443906.1284   20443905.632
        55.0004         50.0004
  -6311089.52247  -4894716.99046  24508207.7764   24508209.9084   24508207.609
        42.0004         37.0004
 -13269099.57148 -10271681.42047  21780205.2754   21780209.8904   21780205.017
        52.0004         47.0004
 -21981988.26949 -17074452.77548  20529946.4534   20529950.2674   20529946.396
        57.0004         52.0004
 17 10 13  1 16 30.0000000  0 10G15G17G25G02G19G32G12G29G06G24
   5355319.06646   4288925.88646  25605835.1554   25605836.5774   25605836.547
        41.0004         36.0004
  -2500112.73447  -1891140.45946  24431064.9444   24431066.2654   24431064.481
        44.0004         39.0004
 -10365559.73048  -8014079.83347  22963506.7154   22963510.7394   22963508.077
        48.0004         43.0004
 -11217520.81848  -8671779.79447  22342128.0434   22342127.2474   22342128.735
        50.0004         46.0004
 -13943084.68848 -10786525.08447  22214899.8184   22214900.6214   22214901.043
        50.0004         46.0004
  -2081418.16947  -1605451.55446  24305683.1234   24305686.4784   24305683.331
        44.0004         39.0004
 -22465414.78449 -17416617.98148  20437646.8954   20437647.7474   20437646.875
        55.0004         50.0004
  -6417916.31847  -4977958.67246  24487880.1944   24487879.6254   24487881.069
        42.0004         38.0004
 -13287983.66248 -10286396.27347  21776611.2144   21776616.5164   21776611.447
        52.0004         47.0004
 -21949854.68649 -17049413.62448  20536061.2844   20536065.0764   20536060.916
        57.0004         52.0004
 17 10 13  1 17  0.0000000  0 10G15G17G25G02G19G32G12G29G06G24
   5450438.08446   4363044.59745  25623936.4924   25623936.2394   25623936.812
        40.0004         35.0004
  -2404430.66547  -1816582.99946  24449272.3614   24449272.5654   24449272.618
        44.0004         40.0004
 -10448120.09848  -8078412.56447  22947796.2994   22947799.7264   22947795.804
        48.0004         43.0004
 -11287173.12748  -8726054.31247  22328873.3164   22328873.2754   22328873.524
        50.0004         45.0004
 -13852407.05448 -10715867.18447  22232155.3384   22232155.8154   22232156.881
        51.0004         46.0004
  -2111255.08247  -1628701.12046  24300004.8864   24300007.1754   24300006.197
        44.0004         39.0004
 -22498003.74949 -17442011.98348  20431445.4854   20431445.8674   20431445.334
        55.0004         50.0004
  -6524617.54947  -5061102.52846  24467574.8354   24467577.0504   24467574.674
        43.0004         38.0004
 -13306270.57248 -10300645.79947  21773131.9274   21773136.2064   21773131.796
        52.0004         47.0004
 -21917187.51749 -17023958.70148  20542277.6584   20542281.4944   20542277.245
        57.0004         52.0004
 17 10 13  1 17 30.0000000  0 10G15G17G25G02G19G32G12G29G06G24
   5545430.67446   4437064.82045  25642012.5494   25642016.5614   25642013.925
        40.0004         35.0004
  -2308689.52147  -1741979.50646  24467492.4134   24467492.3554   24467491.677
        44.0004         40.0004
 -10530550.53648  -8142644.08847  22932108.6754   22932113.9294   22932109.405
        48.0004         43.0004
 -11356479.70548  -8780059.43647  22315684.3884   22315684.8244   22315684.649
        50.0004         46.0004
 -13761450.11048 -10644991.64447  22249464.1594   22249463.9974   22249464.806
        50.0004         45.0004
  -2140547.26847  -1651526.23146  24294430.6574   24294434.7974   24294430.560
        43.0004         39.0004
 -22530293.38049 -17467172.72448  20425301.0094   20425301.5284   20425301.148
        55.0004         50.0004
  -6631193.98747  -5144149.13046  24447295.1124   24447296.7194   24447295.927
        43.0004         38.0004
 -13323961.73748 -10314431.09947  21769765.5064   21769770.4064   21769765.644
        52.0004         47.0004
 -21883989.60549 -16998090.20248  20548594.7284   20548598.8474   20548594.538
        57.0004         52.0004
 17 10 13  1 18  0.0000000  0 10G15G17G25G02G19G32G12G29G06G24
   5640292.63246   4510983.27145  25660066.5524   25660067.3034   25660064.715
        40.0004         35.0004
  -2212892.48147  -1667332.45446  24485722.1594   24485721.7144   24485721.128
        44.0004         40.0004
 -10612851.62748  -8206774.81647  22916448.7984   22916453.8394   22916448.505
        48.0004         43.0004
 -11425439.76148  -8833794.53547  22302561.6354   22302561.7604   22302562.554
        50.0004         46.0004
 -13670217.94448 -10573901.64647  22266824.3644   22266824.7374   22266825.798
        50.0004         45.0004
  -2169295.46247  -1673927.39946  24288959.9484   24288964.2554   24288959.979
        43.0004         39.0004
 -22562284.36649 -17492100.77248  20419213.3304   20419213.6034   20419212.870
        55.0004         50.0004
  -6737645.67647  -5227098.54746  24427037.3134   24427039.0324   24427038.459
        43.0004         39.0004
 -13341057.66848 -10327752.58747  21766512.1254   21766516.1684   21766512.210
        52.0004         47.0004
 -21850262.83049 -16971809.61348  20555012.7224   20555016.9174   20555012.247
        57.0004         52.0004
 17 10 13  1 18 30.0000000  0 10G15G17G25G02G19G32G12G29G06G24
   5735026.46846   4584801.90345  25678092.8134   25678092.3934   25678092.243
        40.0004         35.0004
  -2117036.75147  -1592639.66646  24503962.2374   24503961.9524   24503961.479
        44.0004         40.0004
 -10695017.98448  -8270800.54447  22900813.4414   22900817.6814   22900813.096
        48.0004         43.0004
 -11494046.54948  -8887254.35147  22289506.8064   22289506.4184   22289506.788
        50.0004         46.0004
 -13578708.91048 -10502595.91247  22284238.8774   22284238.7874   22284239.556
        50.0004         46.0004
  -2197494.32747  -1695900.54446  24283594.7334   24283598.7374   24283594.389
        44.0004         39.0004
 -22593972.32449 -17516792.68248  20413183.4114   20413184.1864   20413182.954
        55.0004         50.0004
  -6843966.55247  -5309945.99346  24406806.7334   24406807.3744   24406805.237
        43.0004         39.0004
 -13357553.00948 -10340606.09848  21763373.3484   21763378.0354   21763373.437
        52.0004         48.0004
 -21816003.39949 -16945113.96348  20561532.1034   20561536.1614   20561531.736
        57.0004         52.0004
 17 10 13  1 19  0.0000000  0 10G15G17G25G02G19G32G12G29G06G24
   5829626.43246   4658516.22145  25696095.4524   25696094.8874   25696094.014
        40.0004         35.0004
  -2021127.30747  -1517905.02546  24522212.4714   24522213.9864   24522212.369
        44.0004         40.0004
 -10777052.22948  -8334723.32047  22885202.0164   22885206.4054   22885203.099
        48.0004         44.0004
 -11562300.87148  -8940439.52747  22276518.0474   22276518.1704   22276518.696
        51.0004         46.0004
 -13486928.97348 -10431079.07147  22301703.3854   22301703.6644   22301704.206
        50.0004         45.0004
  -2225146.48847  -1717447.65746  24278332.7304   24278335.9494   24278331.604
        44.0004         39.0004
 -22625360.08049 -17541250.66648  20407210.2444   20407211.0514   20407210.393
        55.0004         50.0004
  -6950158.41147  -5392692.91646  24386597.7094   24386599.2124   24386598.320
        43.0004         39.0004
 -13373450.25048 -10352993.54347  21760348.0644   21760352.4084   21760347.875
        52.0004         47.0004
 -21781214.81249 -16918005.97948  20568152.2074   20568156.3004   20568151.761
        57.0004         52.0004
 17 10 13  1 19 30.0000000  0 10G15G17G25G02G19G32G12G29G06G24
   5924091.71046   4732125.56345  25714070.8204   25714073.1174   25714070.844
        40.0004         35.0004
  -1925164.17847  -1443128.55746  24540473.4684   24540475.2124   24540473.348
        44.0004         40.0004
 -10858951.97148  -8398541.28847  22869617.4594   22869622.1394   22869617.466
        49.0004         44.0004
 -11630199.28448  -8993347.37447  22263597.1514   22263597.4334   22263598.297
        51.0004         46.0004
 -13394878.70448 -10359351.57847  22319220.5054   22319219.8274   22319220.538
        50.0004         45.0004
  -2252249.73747  -1738567.07746  24273175.7664   24273177.2444   24273173.870
        44.0004         39.0004
 -22656444.92449 -17565472.62448  20401295.2524   20401295.6604   20401295.085
        55.0004         50.0004
  -7056218.31747  -5475337.04746  24366416.6704   24366417.8724   24366415.235
        44.0004         39.0004
 -13388747.00048 -10364913.07848  21757437.1034   21757441.8664   21757436.546
        52.0004         48.0004
 -21745897.18149 -16890485.76448  20574873.1104   20574876.7424   20574872.953
        57.0004         52.0004
 17 10 13  1 20  0.0000000  0  9G17G25G02G19G32G12G29G06G24
  -1829153.31847  -1368314.88546  24558743.9524   24558745.9054   24558744.130
        44.0004         40.0004
 -10940720.62348  -8462257.10147  22854056.9444   22854061.0994   22854058.271
        49.0004         44.0004
 -11697743.48248  -9045979.19647  22250744.0534   22250744.6654   22250744.687
        50.0004         46.0004
 -13302565.36748 -10287419.10747  22336787.0484   22336786.6734   22336787.399
        50.0004         45.0004
  -2278807.71647  -1759261.57946  24268121.4164   24268123.5594   24268120.124
        44.0004         39.0004
 -22687231.23049 -17589461.94748  20395436.4574   20395437.5324   20395436.355
        55.0004         51.0004
  -7162148.99447  -5557880.44146  24346256.4394   24346259.7644   24346257.256
        44.0004         39.0004
 -13403446.82748 -10376367.46247  21754639.9424   21754643.9094   21754639.885
        52.0004         47.0004
 -21710054.85549 -16862556.68348  20581692.7374   20581697.6914   20581692.129
        57.0004         52.0004
 17 10 13  1 20 30.0000000  0  9G17G25G02G19G32G12G29G06G24
  -1733090.36947  -1293460.62846  24577024.6364   24577023.5174   24577025.336
        45.0004         40.0004
 -11022351.44548  -8525865.52347  22838523.7944   22838528.0074   22838522.996
        49.0004         44.0004
 -11764925.36248  -9098328.70047  22237959.8224   22237959.6134   22237960.909
        51.0004         46.0004
 -13209985.66748 -10215279.08747  22354404.1244   22354404.3564   22354404.833
        50.0004         45.0004
  -2304813.68247  -1779525.97346  24263170.6934   24263175.5524   24263170.182
        43.0004         38.0004
 -22717711.79549 -17613213.04348  20389636.7334   20389637.2134   20389636.253
        55.0004         51.0004
  -7267942.93147  -5640317.29346  24326124.1264   24326127.0484   24326123.458
        43.0004         38.0004
 -13417542.89148 -10387351.40047  21751956.6844   21751962.5824   21751956.763
        52.0004         47.0004
 -21673682.24249 -16834214.39248  20588614.4074   20588619.2424   20588614.411
        57.0004         52.0004
 17 10 13  1 21  0.0000000  0  9G17G25G02G19G32G12G29G06G24
  -1636979.75647  -1218569.25046  24595314.1934   24595315.6354   24595315.095
        45.0004         40.0004
 -11103846.39548  -8589368.07147  22823016.1364   22823019.5624   22823015.352
        49.0004         45.0004
 -11831745.83348  -9150396.58847  22225244.7754   22225244.3704   22225245.194
        50.0004         46.0004
 -13117144.60948 -10142935.40147  22372070.8564   22372072.0604   22372071.800
        50.0004         46.0004
  -2330269.97247  -1799362.04446  24258326.8724   24258330.2324   24258328.422
        44.0004         39.0004
 -22747889.64349 -17636728.24048  20383893.4464   20383894.2364   20383893.158
        55.0004         50.0004
  -7373601.38047  -5722648.57746  24306018.6334   24306021.2244   24306018.622
        43.0004         39.0004
 -13431037.34748 -10397866.55348  21749390.0734   21749393.9424   21749389.860
        52.0004         48.0004
 -21636783.54349 -16805462.17548  20595636.6624   20595640.5914   20595636.459
        57.0004         52.0004
 17 10 13  1 21 30.0000000  0  9G17G25G02G19G32G12G29G06G24
  -1540824.20747  -1143642.85646  24613611.7984   24613612.4394   24613613.578
        45.0004         40.0004
 -11185206.02248  -8652765.19047  22807533.2484   22807537.6714   22807532.942
        49.0004         44.0004
 -11898203.97048  -9202182.13347  22212598.0094   22212596.8704   22212598.556
        51.0004         46.0004
 -13024046.35848 -10070391.30747  22389787.4114   22389787.2974   22389787.904
        50.0004         45.0004
  -2355177.27247  -1818770.29846  24253587.4054   24253591.9494   24253587.732
        43.0004         39.0004
 -22777765.43849 -17660008.08148  20378208.5874   20378209.1154   20378208.896
        55.0004         50.0004
  -7479124.37047  -5804874.30746  24285937.0314   24285940.3424   24285938.036
        43.0004         39.0004
 -13443930.82848 -10407913.39448  21746936.6724   21746940.6874   21746936.118
        52.0004         48.0004
 -21599360.43449 -16776301.32648  20602757.6264   20602761.9674   20602757.556
        57.0004         52.0004
 17 10 13  1 22  0.0000000  0  9G17G25G02G19G32G12G29G06G24
  -1444623.25347  -1068681.05346  24631918.7484   24631920.0474   24631918.508
        45.0004         40.0004
 -11266426.87148  -8716054.16547  22792076.1264   22792080.4664   22792076.878
        49.0004         44.0004
 -11964294.91648  -9253681.55447  22200021.0734   22200020.7844   22200021.738
        51.0004         46.0004
 -12930690.86248  -9997646.77147  22407552.7014   22407552.6724   22407553.141
        50.0004         45.0004
  -2379532.43347  -1837748.33146  24248952.9644   24248956.3444   24248952.851
        44.0004         39.0004
 -22807335.57449 -17683049.73848  20372581.8094   20372582.5054   20372582.001
        55.0004         51.0004
  -7584507.61747  -5886991.14346  24265882.9494   24265888.5334   24265883.749
        43.0004         38.0004
 -13456220.02348 -10417489.38248  21744597.6674   21744601.7754   21744597.654
        52.0004         48.0004
 -21561411.22749 -16746730.52248  20609978.9094   20609983.3554   20609978.209
        56.0004         52.0004
 17 10 13  1 22 30.0000000  0  9G17G25G02G19G32G12G29G06G24
  -1348379.93547   -993686.23346  24650231.0214   24650236.0384   24650232.419
        44.0004         39.0004
 -11347509.55648  -8779235.48947  22776647.4184   22776651.8164   22776649.248
        49.0004         44.0004
 -12030017.69148  -9304894.07947  22187513.8464   22187514.1774   22187514.380
        51.0004         46.0004
 -12837082.06548  -9924704.84847  22425366.1204   22425364.9364   22425366.736
        49.0004         44.0004
  -2403336.29547  -1856296.80846  24244423.0124   24244426.7344   24244422.716
        43.0004         39.0004
 -22836601.37649 -17705854.25748  20367012.3384   20367013.4274   20367011.979
        55.0004         51.0004
  -7689751.56547  -5968999.44646  24245858.2834   24245859.1304   24245858.904
        43.0004         39.0004
 -13467905.74948 -10426595.12147  21742373.3464   21742377.9764   21742373.166
        52.0004         47.0004
 -21522937.70849 -16716751.15948  20617300.9194   20617304.9464   20617300.684
        57.0004         52.0004
 17 10 13  1 23  0.0000000  0  9G17G25G02G19G32G12G29G06G24
  -1252094.01947   -918658.23546  24668553.7414   24668557.1404   24668554.323
        44.0004         39.0004
 -11428451.70648  -8842307.31447  22761245.0764   22761249.5344   22761245.643
        49.0004         44.0004
 -12095369.04348  -9355817.18847  22175078.1124   22175078.3224   22175078.460
        51.0004         46.0004
 -12743221.04248  -9851566.38047  22443226.4934   22443227.3954   22443227.482
        49.0004         45.0004
  -2426586.84147  -1874414.13246  24239997.8054   24240001.9224   24239999.586
        43.0004         39.0004
 -22865561.18949 -17728420.34548  20361501.8184   20361502.2994   20361502.072
        55.0004         51.0004
  -7794852.95847  -6050896.60946  24225856.9974   24225858.5834   24225857.209
        43.0004         39.0004
 -13478985.85748 -10435228.95547  21740265.1444   21740268.7924   21740264.868
        52.0004         47.0004
 -21483939.53849 -16686362.98148  20624722.1864   20624726.0134   20624721.869
        57.0004         52.0004
 17 10 13  1 23 30.0000000  0  9G17G25G02G19G32G12G29G06G24
  -1155768.67047   -843599.50946  24686885.0924   24686887.9484   24686884.723
        44.0004         39.0004
 -11509253.76548  -8905269.94747  22745869.4824   22745874.0454   22745870.381
        49.0004         44.0004
 -12160347.69148  -9406449.90247  22162712.9454   22162713.3844   22162714.006
        51.0004         46.0004
 -12649111.73548  -9778234.45947  22461135.2904   22461135.3494   22461135.339
        49.0004         45.0004
  -2449284.83047  -1892100.85846  24235679.4314   24235682.7414   24235678.434
        43.0004         39.0004
 -22894214.58549 -17750747.66548  20356049.3804   20356049.5704   20356049.248
        55.0004         51.0004
  -7899811.34247  -6132682.36346  24205884.8704   24205886.7734   24205884.006
        44.0004         39.0004
 -13489461.05548 -10443391.43647  21738272.1474   21738275.4204   21738272.080
        52.0004         47.0004
 -21444418.48949 -16655567.37048  20632242.3234   20632246.5304   20632242.269
        57.0004         52.0004
 17 10 13  1 24  0.0000000  0  9G17G25G02G19G32G12G29G06G24
  -1059404.59947   -768510.61946  24705222.8384   24705224.7474   24705222.841
        44.0004         39.0004
 -11589914.36448  -8968122.34947  22730520.2724   22730525.9134   22730520.066
        49.0004         45.0004
 -12224951.35348  -9456790.39047  22150419.4544   22150419.8884   22150421.156
        51.0004         46.0004
 -12554756.22348  -9704710.69047  22479089.6664   22479089.8534   22479090.008
        49.0004         45.0004
  -2471429.30047  -1909356.29846  24231467.2964   24231469.1284   24231466.264
        43.0004         39.0004
 -22922561.26749 -17772835.98348  20350655.1654   20350655.5064   20350654.891
        55.0004         51.0004
  -8004624.83047  -6214355.20546  24185939.8264   24185942.7324   24185939.187
        44.0004         39.0004
 -13499330.18048 -10451081.65847  21736394.0294   21736397.8864   21736393.846
        52.0004         47.0004
 -21404375.12349 -16624364.76248  20639862.3964   20639866.7314   20639862.614
        57.0004         52.0004
 17 10 13  1 24 30.0000000  0  9G17G25G02G19G32G12G29G06G24
   -963005.56547   -693394.50046  24723567.1074   24723568.5384   24723567.130
        43.0004         38.0004
 -11670434.61948  -9030865.41047  22715196.9914   22715202.8234   22715197.344
        49.0004         45.0004
 -12289179.68048  -9506838.42947  22138197.6154   22138197.2934   22138197.748
        51.0004         46.0004
 -12460159.15048  -9630998.68047  22497090.3474   22497091.2644   22497091.641
        49.0004         44.0004
  -2493021.71647  -1926181.55946  24227357.1144   24227359.9924   24227357.902
        43.0004         38.0004
 -22950602.65849 -17794686.41748  20345319.0184   20345319.7464   20345318.619
        55.0004         51.0004
  -8109294.19847  -6295915.74246  24166021.3864   24166022.8454   24166022.021
        44.0004         39.0004
 -13508594.70848 -10458300.76247  21734630.9034   21734635.2444   21734630.171
        52.0004         47.0004
 -21363812.25949 -16592757.34548  20647581.4514   20647585.7554   20647581.238
        57.0004         52.0004
 17 10 13  1 25  0.0000000  0  9G17G25G02G19G32G12G29G06G24
   -866569.52247   -618249.53846  24741917.7574   24741919.2834   24741917.876
        43.0004         39.0004
 -11750810.11548  -9093495.65447  22699902.2474   22699907.4894   22699901.889
        49.0004         45.0004
 -12353027.10348  -9556589.64747  22126047.5504   22126046.8244   22126048.149
        51.0004         46.0004
 -12365319.34848  -9557097.53147  22515138.2134   22515138.1564   22515138.557
        49.0004         44.0004
  -2514058.10447  -1942573.54446  24223354.6544   24223357.1694   24223354.565
        43.0004         39.0004
 -22978334.99549 -17816296.03548  20340041.5664   20340042.0774   20340041.407
        55.0004         50.0004
  -8213814.32447  -6377359.97846  24146131.9204   24146133.2854   24146131.775
        44.0004         39.0004
 -13517250.56748 -10465045.56148  21732983.5494   21732988.7034   21732983.686
        52.0004         48.0004
 -21322727.22949 -16560743.04648  20655399.9354   20655403.2834   20655400.325
        57.0004         52.0004
 17 10 13  1 25 30.0000000  0  9G17G25G02G19G32G12G29G06G24
   -770101.34547   -543079.55546  24760275.2894   24760277.1794   24760276.160
        43.0004         39.0004
 -11831043.56848  -9156015.22047  22684634.3124   22684638.0734   22684635.034
        49.0004         45.0004
 -12416494.95248  -9606045.08547  22113970.6544   22113969.8054   22113971.873
        51.0004         46.0004
 -12270242.96048  -9483012.03847  22533231.4644   22533230.3784   22533232.292
        49.0004         44.0004
  -2534541.69547  -1958534.77146  24219457.0884   24219459.8294   24219456.219
        44.0004         39.0004
 -23005760.66949 -17837666.67648  20334822.1084   20334823.1314   20334821.985
        55.0004         50.0004
  -8318187.34147  -6458689.59246  24126270.3824   24126272.8184   24126271.023
        44.0004         39.0004
 -13525300.80548 -10471318.46947  21731451.2474   21731456.4024   21731450.993
        52.0004         47.0004
 -21281124.13649 -16528325.06248  20663316.3744   20663320.6304   20663315.953
        57.0004         52.0004
 17 10 13  1 26  0.0000000  0  9G17G25G02G19G32G12G29G06G24
   -673599.33047   -467883.18746  24778638.5144   24778640.0244   24778639.651
        43.0004         38.0004
 -11911129.90848  -9218420.17547  22669394.8704   22669398.5364   22669395.301
        49.0004         45.0004
 -12479577.07748  -9655199.97447  22101965.7314   22101965.9654   22101965.753
        51.0004         46.0004
 -12174928.10948  -9408740.73047  22551368.8154   22551369.1024   22551369.768
        49.0004         44.0004
  -2554467.93147  -1974061.72546  24215663.8604   24215668.0044   24215663.806
        44.0004         39.0004
 -23032875.59949 -17858795.19448  20329663.0234   20329663.4894   20329663.095
        55.0004         51.0004
  -8422407.62747  -6539900.23846  24106439.4304   24106440.5474   24106438.944
        44.0004         39.0004
 -13532740.74748 -10477115.81247  21730035.7504   21730039.8034   21730035.764
        52.0004         47.0004
 -21239000.23749 -16495501.24748  20671332.3024   20671336.1654   20671331.756
        57.0004         52.0004
 17 10 13  1 26 30.0000000  0  9G17G25G02G19G32G12G29G06G24
   -577069.74447   -392665.31046  24797009.1154   24797008.3324   24797007.956
        43.0004         38.0004
 -11991073.70948  -9280714.04247  22654181.9184   22654186.4264   22654180.531
        49.0004         45.0004
 -12542276.91348  -9704056.99247  22090034.6734   22090033.8284   22090034.924
        51.0004         46.0004
 -12079383.05848  -9334290.03747  22569551.1804   22569550.8604   22569552.189
        49.0004         44.0004
  -2573841.70047  -1989158.19246  24211977.8604   24211981.1624   24211978.412
        44.0004         39.0004
 -23059684.22349 -17879685.02648  20324561.3164   20324562.0304   20324560.973
        55.0004         51.0004
  -8526479.13947  -6620994.92546  24086632.9524   24086637.1934   24086632.689
        44.0004         39.0004
 -13539575.42548 -10482441.51848  21728735.8014   21728739.4644   21728735.808
        52.0004         48.0004
 -21196361.52649 -16462276.28948  20679446.4044   20679450.1634   20679446.217
        57.0004         52.0004
 17 10 13  1 27  0.0000000  0  9G17G25G02G19G32G12G29G06G24
   -480510.24747   -317424.13846  24815382.7274   24815386.5714   24815382.593
        42.0004         37.0004
 -12070870.07048  -9342893.03747  22638996.4914   22639001.8594   22638998.084
        49.0004         45.0004
 -12604588.40748  -9752611.38347  22078177.5444   22078177.2744   22078178.908
        51.0004         46.0004
 -11983606.23448  -9259658.75147  22587776.6504   22587776.9704   22587777.915
        49.0004         44.0004
  -2592658.73547  -2003820.84446  24208397.9184   24208401.3244   24208397.131
        44.0004         40.0004
 -23086181.84649 -17900332.52748  20319518.7664   20319519.6894   20319518.668
        55.0004         50.0004
  -8630396.59847  -6701969.55546  24066858.6324   24066861.7044   24066858.797
        43.0004         39.0004
 -13545800.37548 -10487292.12047  21727549.7224   21727555.4374   21727548.936
        52.0004         47.0004
 -21153204.88149 -16428647.74248  20687658.4684   20687662.8804   20687658.337
        57.0004         52.0004
 17 10 13  1 27 30.0000000  0  9G17G25G02G19G32G12G29G06G24
   -383921.57847   -242160.23346  24833759.6674   24833765.2884   24833762.043
        42.0004         37.0004
 -12150517.21848  -9404955.74747  22623840.4094   22623846.1774   22623841.828
        50.0004         45.0004
 -12666508.33748  -9800860.65547  22066394.4284   22066393.6164   22066395.273
        51.0004         46.0004
 -11887599.22748  -9184848.09147  22606045.6244   22606046.1964   22606046.501
        49.0004         44.0004
  -2610917.88247  -2018048.77446  24204921.5674   24204924.2764   24204921.515
        44.0004         40.0004
 -23112367.85549 -17920737.20848  20314535.5024   20314536.3684   20314535.958
        55.0004         50.0004
  -8734157.49447  -6782822.18646  24047112.8174   24047115.2884   24047114.050
        43.0004         39.0004
 -13551414.39648 -10491666.68147  21726481.7244   21726486.5184   21726481.675
        52.0004         47.0004
 -21109530.57849 -16394615.82048  20695969.5604   20695973.7524   20695969.015
        57.0004         52.0004
 17 10 13  1 28  0.0000000  0  9G17G25G02G19G32G12G29G06G24
   -287308.82547   -166877.55846  24852147.0454   24852149.9064   24852147.521
        42.0004         37.0004
 -12230018.18348  -9466904.54147  22608710.8574   22608717.3204   22608711.745
        49.0004         44.0004
 -12728038.91148  -9848806.54547  22054685.5084   22054684.7564   22054686.556
        51.0004         46.0004
 -11791368.38148  -9109863.02347  22624357.7244   22624357.3964   22624359.035
        48.0004         44.0004
  -2628622.71747  -2031844.74246  24201553.8044   24201557.2194   24201554.292
        44.0004         40.0004
 -23138245.07549 -17940901.26848  20309611.1714   20309612.1704   20309610.902
        55.0004         50.0004
  -8837764.43447  -6863554.86046  24027396.9374   24027399.2064   24027397.591
        43.0004         39.0004
 -13556420.98248 -10495567.88947  21725529.9264   21725533.8704   21725529.654
        52.0004         47.0004
 -21065343.16549 -16360184.08248  20704378.2264   20704382.2074   20704378.265
        57.0004         52.0004
 17 10 13  1 28 30.0000000  0  9G17G25G02G19G32G12G29G06G24
   -190672.95646    -91576.87646  24870535.7894   24870537.4534   24870537.184
        41.0004         37.0004
 -12309371.12048  -9528738.00747  22593611.4094   22593616.6904   22593611.493
        49.0004         44.0004
 -12789176.70548  -9896446.37047  22043050.9374   22043051.8044   22043051.024
        51.0004         47.0004
 -11694915.54248  -9034704.97447  22642712.6894   22642712.5574   22642713.618
        48.0004         44.0004
  -2645772.00247  -2045207.81946  24198290.5254   24198292.5564   24198289.384
        44.0004         40.0004
 -23163811.91749 -17960823.48048  20304746.3574   20304747.1024   20304746.236
        55.0004         51.0004
  -8941214.83647  -6944165.54646  24007712.9294   24007714.0574   24007711.628
        44.0004         39.0004
 -13560818.78048 -10498994.74347  21724692.9774   21724696.8914   21724692.300
        52.0004         47.0004
 -21020642.64549 -16325352.51548  20712884.7104   20712888.3624   20712884.651
        57.0004         52.0004
 17 10 13  1 29  0.0000000  0  9G17G25G02G19G32G12G29G06G24
    -94010.84046    -16255.71446  24888933.3164   24888932.6994   24888930.442
        41.0004         36.0004
 -12388570.55448  -9590451.84147  22578540.8544   22578543.9784   22578539.869
        49.0004         44.0004
 -12849915.51548  -9943775.27947  22031492.7194   22031493.7794   22031493.280
        51.0004         47.0004
 -11598238.50248  -8959372.20747  22661109.7624   22661109.7704   22661109.856
        49.0004         44.0004
  -2662360.92247  -2058134.24146  24195133.0794   24195135.0274   24195131.672
        44.0004         39.0004
 -23189063.21849 -17980499.82148  20299940.8504   20299941.6454   20299940.962
        55.0004         51.0004
  -9044503.00947  -7024649.81246  23988056.1934   23988057.9004   23988057.009
        44.0004         39.0004
 -13564602.99148 -10501943.45947  21723972.8844   21723976.9874   21723973.146
        52.0004         47.0004
 -20975425.77749 -16290118.60348  20721488.9994   20721493.4974   20721488.712
        57.0004         52.0004
 17 10 13  1 29 30.0000000  0  9G17G25G02G19G32G12G29G06G24
      2669.37846     59079.55046  24907325.6294   24907332.5004   24907327.011
        40.0004         36.0004
 -12467622.41648  -9652050.69847  22563497.5414   22563500.8244   22563497.252
        49.0004         44.0004
 -12910260.05648  -9990796.99047  22020010.0564   22020009.5994   22020010.455
        51.0004         47.0004
 -11501346.17448  -8883871.68947  22679547.7454   22679549.0434   22679548.731
        49.0004         44.0004
  -2678396.03347  -2070629.12746  24192080.1374   24192085.1444   24192078.570
        44.0004         39.0004
 -23214005.57449 -17999935.41848  20295194.8744   20295195.2804   20295194.427
        55.0004         51.0004
  -9147634.33647  -7105011.86446  23968433.3844   23968431.3244   23968434.526
        44.0004         39.0004
 -13567780.10048 -10504419.12747  21723367.9874   21723372.1244   21723368.292
        52.0004         47.0004
 -20929700.94149 -16254488.87148  20730190.0924   20730194.2284   20730190.144
        57.0004         52.0004
 17 10 13  1 30  0.0000000  0  9G17G25G02G19G32G12G29G06G24
     99370.91446    134431.42045  24925726.4824   24925730.3364   24925730.003
        40.0004         35.0004
 -12546521.16748  -9713530.25947  22548483.0724   22548487.1304   22548483.577
        49.0004         44.0004
 -12970203.73248 -10037506.34047  22008602.4744   22008602.4274   22008603.678
        51.0004         46.0004
 -11404236.71848  -8808201.97747  22698026.5174   22698027.0884   22698028.190
        49.0004         44.0004
  -2693872.57247  -2082688.77246  24189135.9824   24189140.4444   24189135.200
        44.0004         40.0004
 -23238633.97749 -18019126.37348  20290508.2804   20290508.9714   20290508.186
        55.0004         51.0004
  -9250602.51047  -7185246.80546  23948837.8874   23948838.9174   23948837.735
        44.0004         39.0004
 -13570345.24448 -10506417.92048  21722879.8554   21722884.8554   21722879.579
        52.0004         48.0004
 -20883463.15849 -16218459.43448  20738988.9854   20738993.0474   20738988.549
        57.0004         52.0004
 17 10 13  1 30 30.0000000  0  8G25G02G19G32G12G29G06G24
 -12625267.74348  -9774891.21947  22533498.3434   22533504.1704   22533499.223
        49.0004         45.0004
 -13029746.39648 -10083903.19447  21997272.4774   21997271.1144   21997273.020
        51.0004         46.0004
 -11306914.46048  -8732366.45447  22716546.8844   22716547.9534   22716547.757
        49.0004         44.0004
  -2708792.22747  -2094314.47246  24186296.5644   24186300.6224   24186297.141
        44.0004         40.0004
 -23262949.09449 -18038073.21448  20285881.4664   20285881.4104   20285881.167
        55.0004         51.0004
  -9353408.23347  -7265355.15946  23929275.4574   23929275.2524   23929275.055
        44.0004         40.0004
 -13572300.05148 -10507941.12148  21722507.8824   21722512.2794   21722507.419
        52.0004         48.0004
 -20836716.70549 -16182033.63148  20747884.4194   20747888.0404   20747884.382
        56.0004         52.0004
 17 10 13  1 31  0.0000000  0  9G17G25G02G19G32G12G29G06G24
 -21763046.51046 -16901218.52945  24962541.5464   24962543.8574   24962546.579
        39.0004         34.0004
 -12703853.43748  -9836126.81747  22518544.4974   22518548.4994   22518544.980
        50.0004         45.0004
 -13088878.19948 -10129979.91547  21986019.6194   21986018.8054   21986020.465
        51.0004         46.0004
 -11209374.43148  -8656361.24447  22735108.0814   22735109.0334   22735108.865
        49.0004         45.0004
  -2723147.09447  -2105500.05646  24183565.6784   24183568.6744   24183564.673
        45.0004         40.0004
 -23286943.29649 -18056769.99248  20281315.0474   20281315.6524   20281315.101
        55.0004         51.0004
  -9456042.28047  -7345329.74346  23909743.0154   23909746.0934   23909745.886
        44.0004         40.0004
 -13573636.53948 -10508982.53147  21722252.9924   21722257.5434   21722252.521
        52.0004         47.0004
 -20789453.85249 -16145205.44248  20756878.4644   20756882.2634   20756878.237
        56.0004         52.0004
 17 10 13  1 31 30.0000000  0  8G25G02G19G32G12G29G06G24
 -12782289.90148  -9897246.12747  22503617.4414   22503623.6284   22503618.562
        50.0004         45.0004
 -13147609.79348 -10175744.78547  21974843.6674   21974843.6974   21974844.587
        51.0004         46.0004
 -11111631.45148  -8580197.88847  22753707.4334   22753708.0864   22753708.114
        49.0004         44.0004
  -2736949.47847  -2116255.16346  24180938.3454   24180942.3364   24180938.900
        45.0004         40.0004
 -23310628.49349 -18075225.99548  20276808.3274   20276808.7574   20276808.128
        55.0004         51.0004
  -9558515.62147  -7425179.09846  23890244.8424   23890246.2084   23890244.356
        45.0004         40.0004
 -13574367.05348 -10509551.74048  21722114.5024   21722119.0664   21722114.538
        52.0004         48.0004
 -20741688.52549 -16107985.71248  20765967.6334   20765971.8034   20765967.564
        57.0004         52.0004
 17 10 13  1 32  0.0000000  0  9G17G25G02G19G32G12G29G06G24
 -21569527.44646 -16750424.49545  24999370.5874   24999371.7094   24999372.765
        38.0004         33.0004
 -12860572.68948  -9958245.68647  22488722.0014   22488726.7784   22488721.981
        50.0004         45.0004
 -13205935.69848 -10221193.51947  21963743.9014   21963744.8904   21963744.504
        51.0004         46.0004
 -11013684.03948  -8503875.23747  22772345.9754   22772346.9144   22772347.182
        49.0004         44.0004
  -2750195.88847  -2126577.03946  24178416.8954   24178421.6004   24178417.479
        44.0004         39.0004
 -23334000.33649 -18093437.81948  20272360.7234   20272361.3074   20272360.333
        55.0004         51.0004
  -9660823.51947  -7504899.52346  23870776.8424   23870777.1564   23870775.715
        45.0004         40.0004
 -13574487.89948 -10509645.90448  21722091.6084   21722096.1924   21722091.066
        52.0004         48.0004
 -20693418.53449 -16070372.74448  20775153.7064   20775157.4024   20775153.496
        56.0004         52.0004
 17 10 13  1 32 30.0000000  0  9G17G25G02G19G32G12G29G06G24
 -21472750.62146 -16675014.03545  25017788.2744   25017785.6954   25017787.313
        39.0004         34.0004
 -12938700.28248 -10019124.30547  22473854.4364   22473859.0024   22473854.215
        49.0004         45.0004
 -13263853.55348 -10266324.30647  21952722.4714   21952722.9654   21952722.899
        51.0004         47.0004
 -10915534.46448  -8427395.04647  22791024.7134   22791023.5404   22791025.535
        49.0004         44.0004
  -2762885.54647  -2136465.09046  24176003.7194   24176005.2184   24176003.302
        44.0004         39.0004
 -23357057.68549 -18111404.57948  20267972.7264   20267973.2854   20267972.779
        55.0004         51.0004
  -9762964.17447  -7584489.64646  23851337.7934   23851340.7324   23851339.760
        45.0004         40.0004
 -13573998.42548 -10509264.49048  21722185.3894   21722189.2484   21722184.873
        53.0004         48.0004
 -20644644.42849 -16032366.96048  20784434.3724   20784438.5554   20784434.479
        56.0004         52.0004
 17 10 13  1 33  0.0000000  0  9G17G25G02G19G32G12G29G06G24
 -21375958.68046 -16599591.75845  25036207.6734   25036206.7944   25036205.978
        39.0004         35.0004
 -13016666.60748 -10079877.30047  22459016.9534   22459022.4354   22459017.855
        49.0004         45.0004
 -13321356.42948 -10311131.72447  21941780.1904   21941780.6324   21941781.025
        51.0004         47.0004
 -10817180.08948  -8350755.27747  22809741.4764   22809740.4284   22809742.084
        49.0004         44.0004
  -2775013.31747  -2145915.28746  24173696.7314   24173699.0984   24173698.063
        45.0004         40.0004
 -23379794.87049 -18129121.87248  20263646.2564   20263646.3874   20263646.303
        55.0004         51.0004
  -9864930.93047  -7663944.25246  23831934.2964   23831938.2984   23831936.244
        45.0004         41.0004
 -13572893.34248 -10508403.37348  21722395.2104   21722400.1734   21722394.555
        53.0004         48.0004
 -20595362.03149 -15993965.09448  20793812.9474   20793816.5934   20793812.540
        56.0004         51.0004
 17 10 13  1 33 30.0000000  0  9G17G25G02G19G32G12G29G06G24
 -21279161.38146 -16524165.29345  25054626.7424   25054628.5594   25054626.228
        39.0004         34.0004
 -13094478.75548 -10140510.17047  22444209.7074   22444214.1574   22444210.337
        49.0004         44.0004
 -13378450.20848 -10355620.35647  21930916.2274   21930915.9604   21930917.020
        51.0004         47.0004
 -10718630.96248  -8273963.75347  22828493.4464   22828493.0854   22828494.467
        49.0004         44.0004
  -2786587.17047  -2154933.88946  24171493.6854   24171495.4624   24171493.554
        45.0004         40.0004
 -23402219.60949 -18146595.69848  20259378.9734   20259379.3154   20259379.135
        55.0004         51.0004
  -9966730.32147  -7743268.43746  23812565.2664   23812565.6164   23812565.007
        45.0004         41.0004
 -13571180.63748 -10507068.78348  21722720.7124   21722725.5964   21722720.358
        53.0004         48.0004
 -20545580.53049 -15955174.32848  20803285.8334   20803289.8634   20803285.266
        56.0004         51.0004
 17 10 13  1 34  0.0000000  0  9G17G25G02G19G32G12G29G06G24
 -21182353.63446 -16448730.69145  25073043.6734   25073048.8654   25073047.249
        39.0004         35.0004
 -13172129.44148 -10201017.18647  22429433.3084   22429438.4764   22429433.962
        49.0004         45.0004
 -13435126.71448 -10399783.85447  21920130.7724   21920131.4694   21920130.796
        52.0004         47.0004
 -10619883.57248  -8197017.73847  22847285.3294   22847284.7064   22847285.831
        48.0004         44.0004
  -2797600.81147  -2163515.92746  24169397.1684   24169401.4954   24169397.749
        45.0004         40.0004
 -23424325.36649 -18163820.97248  20255172.3924   20255172.8854   20255172.566
        55.0004         51.0004
 -10068354.73347  -7822456.28346  23793224.8974   23793227.7504   23793224.953
        45.0004         40.0004
 -13568853.89948 -10505255.72048  21723163.8424   21723168.6294   21723163.475
        53.0004         48.0004
 -20495295.19449 -15915990.96448  20812854.3554   20812859.0074   20812854.026
        56.0004         51.0004
 17 10 13  1 34 30.0000000  0  9G17G25G02G19G32G12G29G06G24
 -21085539.70646 -16373291.23945  25091469.0414   25091472.5754   25091470.638
        39.0004         35.0004
 -13249620.57448 -10261399.87347  22414688.0964   22414691.8664   22414688.178
        49.0004         45.0004
 -13491387.06548 -10443623.06547  21909424.0184   21909424.7904   21909424.974
        52.0004         47.0004
 -10520942.93048  -8119921.12947  22866112.1574   22866112.0794   22866113.144
        48.0004         44.0004
  -2808057.09047  -2171663.70746  24167407.7324   24167410.1564   24167407.186
        44.0004         39.0004
 -23446113.50449 -18180798.74148  20251026.0944   20251027.0084   20251025.859
        56.0004         51.0004
 -10169805.62347  -7901508.92346  23773919.6744   23773921.1264   23773919.304
        45.0004         40.0004
 -13565915.98148 -10502966.41548  21723722.9504   21723727.0724   21723722.533
        53.0004         48.0004
 -20444509.63849 -15876417.80848  20822518.6384   20822523.0594   20822518.399
        56.0004         51.0004
 17 10 13  1 35  0.0000000  0  9G17G25G02G19G32G12G29G06G24
 -20988720.11646 -16297847.43545  25109893.1664   25109896.0704   25109894.506
        39.0004         35.0004
 -13326950.37248 -10321656.82747  22399972.9134   22399977.5134   22399973.031
        50.0004         45.0004
 -13547228.48448 -10487135.85447  21898798.3294   21898798.2504   21898798.877
        52.0004         47.0004
 -10421811.15048  -8042675.59147  22884976.8404   22884975.8044   22884976.524
        48.0004         43.0004
  -2817955.24747  -2179376.54846  24165524.6724   24165527.3744   24165523.919
        45.0004         40.0004
 -23467583.22549 -18197528.38648  20246940.7644   20246941.3104   20246940.274
        56.0004         51.0004
 -10271081.01247  -7980424.79846  23754646.6604   23754648.8654   23754646.218
        45.0004         40.0004
 -13562366.08348 -10500200.23548  21724398.6124   21724403.2234   21724398.739
        53.0004         48.0004
 -20393224.88049 -15836455.66648  20832278.3884   20832281.9554   20832278.227
        56.0004         51.0004
 17 10 13  1 35 30.0000000  0  9G17G25G02G19G32G12G29G06G24
 -20891894.73346 -16222399.09345  25128320.1334   25128320.1314   25128320.390
        39.0004         34.0004
 -13404116.23448 -10381786.06947  22385288.9374   22385292.9674   22385288.837
        50.0004         45.0004
 -13602647.48248 -10530319.48047  21888252.3994   21888252.6094   21888252.730
        52.0004         47.0004
 -10322488.35248  -7965281.21947  22903876.1054   22903876.6164   22903876.641
        48.0004         44.0004
  -2827293.62947  -2186653.20146  24163747.1844   24163749.3814   24163746.895
        45.0004         40.0004
 -23488732.25249 -18214008.14848  20242916.3254   20242916.9314   20242916.144
        56.0004         51.0004
 -10372177.97847  -8059201.65346  23735408.1774   23735412.3704   23735408.969
        45.0004         40.0004
 -13558202.54648 -10496955.91048  21725190.5734   21725194.7004   21725190.860
        53.0004         48.0004
 -20341439.73049 -15796103.61148  20842132.8634   20842136.3264   20842132.461
        56.0004         51.0004
 17 10 13  1 36  0.0000000  0  9G17G25G02G19G32G12G29G06G24
 -20795068.07546 -16146949.79145  25146744.8534   25146745.7244   25146745.567
        39.0004         34.0004
 -13481120.32348 -10441789.24547  22370635.5724   22370639.2834   22370636.715
        50.0004         45.0004
 -13657645.47848 -10573175.04247  21877786.7204   21877786.9074   21877787.457
        51.0004         47.0004
 -10222980.27948  -7887742.46247  22922811.8594   22922812.0464   22922811.890
        48.0004         43.0004
  -2836075.40047  -2193496.11246  24162074.8674   24162079.7844   24162074.182
        45.0004         40.0004
 -23509563.59649 -18230240.37048  20238951.8314   20238952.5324   20238951.781
        56.0004         51.0004
 -10473098.20947  -8137840.78646  23716203.7534   23716205.0914   23716204.104
        45.0004         40.0004
 -13553428.54148 -10493235.90047  21726098.5754   21726102.9274   21726098.201
        52.0004         47.0004
 -20289158.63249 -15755365.10448  20852081.4394   20852085.2294   20852081.661
        56.0004         51.0004
 17 10 13  1 36 30.0000000  0  8G25G02G19G32G12G29G06G24
 -13557961.91348 -10501665.80147  22356012.4184   22356016.5004   22356013.978
        50.0004         45.0004
 -13712220.66148 -10615701.14547  21867401.3834   21867400.4334   21867402.047
        52.0004         47.0004
 -10123289.57448  -7810061.39447  22941781.3054   22941783.6794   22941782.364
        48.0004         43.0004
  -2844301.00847  -2199905.67946  24160510.3314   24160514.0824   24160510.394
        44.0004         39.0004
 -23530076.57849 -18246224.51448  20235048.4874   20235049.1194   20235048.087
        56.0004         51.0004
 -10573839.99847  -8216340.88246  23697033.0864   23697035.6194   23697032.223
        45.0004         40.0004
 -13548044.42248 -10489040.47948  21727122.8924   21727127.8154   21727123.131
        52.0004         48.0004
 -20236383.28149 -15714241.46248  20862124.3894   20862128.4104   20862124.196
        56.0004         51.0004
 17 10 13  1 37  0.0000000  0  8G25G02G19G32G12G29G06G24
 -13634636.39948 -10561412.15147  22341422.1954   22341427.0104   22341422.068
        50.0004         46.0004
 -13766367.57948 -10657893.52847  21857097.2974   21857097.1574   21857098.054
        52.0004         47.0004
 -10023415.47748  -7732237.43547  22960786.6054   22960788.1524   22960788.121
        48.0004         43.0004
  -2851967.04247  -2205879.20246  24159051.4384   24159055.5194   24159050.403
        44.0004         40.0004
 -23550266.98449 -18261957.30048  20231206.1794   20231207.6634   20231205.678
        56.0004         51.0004
 -10674399.00547  -8294698.51846  23677897.6064   23677899.5534   23677897.805
        45.0004         40.0004
 -13542046.64348 -10484366.86847  21728264.8304   21728268.3264   21728265.078
        52.0004         47.0004
 -20183111.44549 -15672730.94648  20872261.3294   20872265.8324   20872261.465
        56.0004         51.0004
 17 10 13  1 37 30.0000000  0  8G25G02G19G32G12G29G06G24
 -13711145.73548 -10621029.82347  22326862.9444   22326867.6244   22326863.050
        51.0004         46.0004
 -13820087.67248 -10699753.32747  21846874.5634   21846875.3234   21846875.084
        52.0004         47.0004
  -9923362.29748  -7654273.91747  22979827.6944   22979827.1914   22979828.280
        48.0004         43.0004
  -2859076.43547  -2211418.98746  24157699.4404   24157702.8174   24157699.411
        45.0004         40.0004
 -23570137.23049 -18277440.60448  20227424.8884   20227426.0614   20227424.701
        56.0004         51.0004
 -10774776.61847  -8372914.83646  23658796.1674   23658799.5894   23658796.707
        45.0004         40.0004
 -13535438.29648 -10479217.48948  21729522.6124   21729526.1924   21729522.639
        52.0004         48.0004
 -20129347.22649 -15630836.75748  20882492.6414   20882496.8474   20882491.712
        56.0004         51.0004
 17 10 13  1 38  0.0000000  0  8G25G02G19G32G12G29G06G24
 -13787488.29648 -10680517.52747  22312335.1544   22312340.2734   22312334.600
        51.0004         46.0004
 -13873378.41348 -10741278.56047  21836734.5504   21836734.6024   21836734.869
        52.0004         47.0004
  -9823132.19448  -7576172.53647  22998900.6814   22998900.7274   22998901.503
        48.0004         43.0004
  -2865628.76847  -2216524.70046  24156451.9764   24156455.8134   24156451.561
        45.0004         40.0004
 -23589686.02049 -18292673.42348  20223704.9444   20223706.0064   20223704.773
        56.0004         51.0004
 -10874970.83547  -8450988.25546  23639729.1594   23639734.4214   23639730.769
        45.0004         41.0004
 -13528218.89848 -10473591.97348  21730896.5524   21730900.7814   21730895.890
        52.0004         48.0004
 -20075091.19049 -15588559.33948  20892816.6864   20892821.0654   20892816.412
        56.0004         51.0004
 17 10 13  1 38 30.0000000  0  8G25G02G19G32G12G29G06G24
 -13863664.05548 -10739875.26647  22297839.7624   22297844.1534   22297840.525
        51.0004         46.0004
 -13926238.99248 -10782468.60347  21826675.0974   21826674.5124   21826676.129
        52.0004         47.0004
  -9722728.88848  -7497936.22147  23018005.5604   23018007.2494   23018006.956
        48.0004         43.0004
  -2871625.28747  -2221197.29446  24155310.6844   24155313.8014   24155311.732
        45.0004         40.0004
 -23608913.92049 -18307656.20648  20220045.9334   20220047.2204   20220046.094
        56.0004         51.0004
 -10974981.57347  -8528918.70146  23620701.4564   23620702.0324   23620701.068
        45.0004         41.0004
 -13520389.62248 -10467491.22848  21732386.7824   21732390.2064   21732385.994
        52.0004         48.0004
 -20020346.07449 -15545900.82148  20903234.7494   20903239.0174   20903234.497
        56.0004         51.0004
 17 10 13  1 39  0.0000000  0  8G25G02G19G32G12G29G06G24
 -13939667.90048 -10799099.02547  22283375.8944   22283381.5054   22283376.952
        51.0004         46.0004
 -13978663.46248 -10823318.82247  21816699.6004   21816698.0214   21816700.335
        52.0004         47.0004
  -9622150.04048  -7419563.11347  23037146.0584   23037147.2914   23037146.757
        48.0004         43.0004
  -2877062.06847  -2225433.75146  24154276.3474   24154279.4734   24154275.861
        45.0004         40.0004
 -23627816.31249 -18322385.33548  20216448.9794   20216449.9474   20216448.981
        56.0004         51.0004
 -11074803.17247  -8606701.73746  23601704.4844   23601705.4264   23601704.406
        45.0004         41.0004
 -13511946.51548 -10460912.16148  21733993.2494   21733996.9934   21733993.682
        53.0004         48.0004
 -19965108.91249 -15502858.88348  20913745.9924   20913750.2464   20913745.490
        56.0004         51.0004
 17 10 13  1 39 30.0000000  0  8G25G02G19G32G12G29G06G24
 -14015502.67448 -10858191.05647  22268946.0934   22268950.0194   22268946.204
        51.0004         46.0004
 -14030654.10048 -10863830.98547  21806805.7004   21806805.6704   21806805.950
        52.0004         47.0004
  -9521402.30148  -7341058.38147  23056317.5434   23056318.7634   23056318.819
        48.0004         43.0004
  -2881943.21547  -2229237.27546  24153347.9944   24153350.8164   24153346.915
        45.0004         40.0004
 -23646396.91749 -18336863.73148  20212913.0074   20212913.9974   20212912.852
        56.0004         51.0004
 -11174438.20347  -8684339.43746  23582743.9244   23582745.4244   23582743.911
        46.0004         41.0004
 -13502893.66948 -10453857.97748  21735715.8504   21735718.9654   21735715.245
        52.0004         48.0004
 -19909384.80149 -15459437.50448  20924349.6894   20924354.0554   20924349.501
        56.0004         51.0004
 17 10 13  1 40  0.0000000  0  8G25G02G19G32G12G29G06G24
 -14091167.51148 -10917150.67347  22254547.5734   22254551.5744   22254547.694
        51.0004         46.0004
 -14082209.17848 -10904003.77547  21796994.4094   21796993.8854   21796994.769
        52.0004         47.0004
  -9420487.89447  -7262423.75847  23075520.0374   23075522.2174   23075521.714
        47.0004         43.0004
  -2886269.09047  -2232608.09746  24152523.0394   24152529.2034   24152523.177
        44.0004         40.0004
 -23664654.83349 -18351090.68148  20209439.0494   20209439.6604   20209439.144
        56.0004         51.0004
 -11273885.79147  -8761831.03946  23563818.7774   23563822.2044   23563819.146
        45.0004         41.0004
 -13493231.50148 -10446329.00247  21737553.6284   21737558.3384   21737554.141
        52.0004         47.0004
 -19853175.23549 -15415637.85348  20935045.8834   20935050.1034   20935045.158
        56.0004         51.0004
 17 10 13  1 40 30.0000000  0  8G25G02G19G32G12G29G06G24
 -14166660.87848 -10975976.66847  22240180.1794   22240185.7794   22240180.530
        51.0004         46.0004
 -14133326.73748 -10943835.62047  21787266.9924   21787267.6114   21787267.796
        52.0004         47.0004
  -9319408.73347  -7183660.79147  23094755.7244   23094757.1904   23094755.984
        47.0004         43.0004
  -2890039.43047  -2235546.03846  24151807.5734   24151810.5724   24151806.889
        45.0004         40.0004
 -23682588.95249 -18365065.31648  20206025.9864   20206026.8324   20206025.635
        56.0004         51.0004
 -11373143.78447  -8839174.92446  23544930.6854   23544934.3804   23544929.525
        45.0004         41.0004
 -13482959.73848 -10438325.02348  21739508.4644   21739513.1514   21739507.639
        52.0004         48.0004
 -19796481.39849 -15371460.85248  20945834.4384   20945838.5024   20945834.625
        56.0004         51.0004
 17 10 13  1 41  0.0000000  0  8G25G02G19G32G12G29G06G24
 -14241978.46048 -11034665.70547  22225848.1924   22225852.3854   22225848.139
        50.0004         45.0004
 -14184001.51248 -10983322.44047  21777624.2654   21777624.1024   21777624.696
        52.0004         47.0004
  -9218163.81247  -7104768.67647  23114021.0484   23114022.8804   23114022.744
        47.0004         43.0004
  -2893251.41847  -2238048.89046  24151196.3424   24151199.1504   24151194.893
        45.0004         40.0004
 -23700195.86649 -18378784.99048  20202675.7464   20202676.8434   20202675.768
        56.0004         51.0004
 -11472207.38247  -8916367.33746  23526079.9154   23526081.9594   23526078.761
        45.0004         40.0004
 -13472075.43348 -10429843.73748  21741579.8174   21741584.8834   21741579.740
        52.0004         48.0004
 -19739301.10149 -15326904.78548  20956715.9124   20956719.6644   20956716.065
        56.0004         51.0004
 17 10 13  1 41 30.0000000  0  8G25G02G19G32G12G29G06G24
 -14317125.79048 -11093222.07147  22211548.0094   22211553.2884   22211548.745
        50.0004         46.0004
 -14234238.57048 -11022468.18547  21768064.8494   21768064.1784   21768065.578
        52.0004         47.0004
  -9116761.86147  -7025754.16847  23133318.5174   23133319.9694   23133319.629
        47.0004         42.0004
  -2895911.84447  -2240121.94946  24150688.9534   24150693.5694   24150687.320
        45.0004         40.0004
 -23717481.34949 -18392254.19948  20199385.8674   20199387.2904   20199385.853
        56.0004         51.0004
 -11571082.17047  -8993412.60646  23507264.8744   23507265.9694   23507264.477
        45.0004         40.0004
 -13460585.48548 -10420890.51848  21743767.1584   21743770.0774   21743766.674
        52.0004         48.0004
 -19681641.96849 -15281975.59248  20967687.5864   20967692.0054   20967687.237
        56.0004         51.0004
 17 10 13  1 42  0.0000000  0  8G25G02G19G32G12G29G06G24
 -14392095.61348 -11151640.10047  22197282.1354   22197286.9414   22197282.783
        50.0004         46.0004
 -14284030.05848 -11061266.73047  21758589.9714   21758589.5054   21758590.437
        52.0004         47.0004
  -9015199.38047  -6946614.56347  23152644.2964   23152646.4044   23152644.616
        47.0004         42.0004
  -2898014.90447  -2241760.66746  24150288.4384   24150292.9554   24150288.922
        44.0004         40.0004
 -23734437.93349 -18405467.11448  20196159.1714   20196160.2674   20196158.993
        56.0004         51.0004
 -11669760.59247  -9070304.88246  23488487.6834   23488488.2524   23488487.690
        45.0004         41.0004
 -13448483.96548 -10411460.75348  21746069.2104   21746073.7874   21746068.948
        52.0004         48.0004
 -19623499.92049 -15236670.10748  20978752.1474   20978756.0284   20978751.961
        56.0004         51.0004
 17 10 13  1 42 30.0000000  0  8G25G02G19G32G12G29G06G24
 -14466887.71948 -11209919.66747  22183050.5704   22183053.9724   22183051.006
        51.0004         46.0004
 -14333374.79748 -11099717.15947  21749199.7314   21749199.2024   21749200.838
        52.0004         47.0004
  -8913478.82847  -6867351.80947  23172001.7214   23172003.0814   23172001.488
        47.0004         42.0004
  -2899561.67747  -2242965.97946  24149995.1444   24149998.0704   24149995.394
        44.0004         39.0004
 -23751066.54849 -18418424.47748  20192995.1224   20192995.9354   20192995.091
        56.0004         51.0004
 -11768242.06047  -9147043.67146  23469744.6254   23469748.3734   23469747.037
        45.0004         41.0004
 -13435772.10648 -10401555.39648  21748488.4384   21748493.4574   21748488.166
        53.0004         48.0004
 -19564877.04349 -15190989.95348  20989907.5554   20989911.7054   20989907.358
        56.0004         51.0004
 17 10 13  1 43  0.0000000  0  8G25G02G19G32G12G29G06G24
 -14541504.93348 -11268062.97147  22168850.2344   22168854.9014   22168850.719
        51.0004         46.0004
 -14382275.38248 -11137821.51448  21739894.2034   21739893.4554   21739894.762
        52.0004         48.0004
  -8811606.63747  -6787970.88847  23191387.0194   23191388.3754   23191387.758
        47.0004         43.0004
  -2900556.62347  -2243741.26046  24149805.5484   24149807.9344   24149806.282
        44.0004         40.0004
 -23767370.95049 -18431129.20148  20189892.6774   20189893.4694   20189892.366
        56.0004         51.0004
 -11866529.34847  -9223631.15246  23451041.9774   23451045.7014   23451043.001
        46.0004         41.0004
 -13422454.24948 -10391177.83648  21751022.0234   21751026.4634   21751021.928
        52.0004         48.0004
 -19505778.25949 -15144938.95848  21001153.9044   21001157.6594   21001153.666
        56.0004         51.0004
 17 10 13  1 43 30.0000000  0  8G25G02G19G32G12G29G06G24
 -14615944.61848 -11326067.92347  22154685.2474   22154689.6844   22154685.128
        51.0004         46.0004
 -14430728.57848 -11175577.22548  21730673.5674   21730674.1504   21730674.750
        52.0004         48.0004
  -8709583.35147  -6708472.23447  23210801.7064   23210801.7454   23210803.617
        47.0004         42.0004
  -2900998.55647  -2244085.64046  24149720.0914   24149725.5134   24149719.153
        44.0004         39.0004
 -23783348.47749 -18443579.22848  20186852.7534   20186852.9074   20186852.519
        56.0004         51.0004
 -11964620.06947  -9300065.46546  23432375.8134   23432378.7844   23432376.675
        46.0004         41.0004
 -13408529.18748 -10380327.13348  21753672.4494   21753676.0514   21753672.538
        52.0004         48.0004
 -19446203.84749 -15098517.34548  21012490.1904   21012494.6294   21012490.442
        56.0004         51.0004
 17 10 13  1 44  0.0000000  0  8G25G02G19G32G12G29G06G24
 -14690202.97648 -11383931.57447  22140554.4994   22140559.2604   22140555.303
        51.0004         46.0004
 -14478730.01048 -11212980.92248  21721539.4844   21721539.6254   21721539.680
        52.0004         48.0004
  -8607408.59047  -6628855.54847  23230244.9494   23230245.2424   23230246.767
        47.0004         42.0004
  -2900885.20247  -2243997.30846  24149743.8044   24149746.2904   24149743.216
        44.0004         39.0004
 -23798995.82149 -18455771.95448  20183874.1884   20183875.5664   20183874.120
        56.0004         51.0004
 -12062509.23147  -9376342.74247  23413749.2624   23413752.3514   23413749.709
        46.0004         42.0004
 -13393994.63448 -10369001.49047  21756437.5004   21756442.2304   21756436.561
        52.0004         47.0004
 -19386152.53949 -15051724.13148  21023917.6674   21023921.9104   21023917.449
        56.0004         51.0004
 17 10 13  1 44 30.0000000  0  8G25G02G19G32G12G29G06G24
 -14764281.67848 -11441655.22947  22126457.3484   22126462.3444   22126457.691
        51.0004         46.0004
 -14526281.05548 -11250033.66348  21712490.9344   21712490.6604   21712491.252
        52.0004         48.0004
  -8505087.42747  -6549124.77747  23249716.3374   23249716.3354   23249718.075
        47.0004         42.0004
  -2900219.66347  -2243478.71446  24149869.5894   24149874.0464   24149868.287
        44.0004         40.0004
 -23814315.58949 -18467709.42948  20180959.3524   20180960.2634   20180959.120
        56.0004         51.0004
 -12160198.54247  -9452464.26047  23395160.6984   23395162.0204   23395160.006
        47.0004         42.0004
 -13378853.82048 -10357203.43748  21759319.1454   21759323.3724   21759318.879
        52.0004         48.0004
 -19325628.73449 -15004562.73748  21035435.0854   21035439.0504   21035434.709
        56.0004         51.0004
 17 10 13  1 45  0.0000000  0  8G25G02G19G32G12G29G06G24
 -14838181.41648 -11499239.43147  22112394.6224   22112399.6674   22112394.776
        51.0004         46.0004
 -14573381.55848 -11286735.33948  21703527.5354   21703528.3104   21703528.356
        52.0004         48.0004
  -8402623.92047  -6469283.09447  23269215.1464   23269215.6094   23269215.815
        46.0004         42.0004
  -2899004.25147  -2242531.63646  24150100.0544   24150103.8804   24150100.971
        44.0004         40.0004
 -23829308.76549 -18479392.42548  20178106.4984   20178107.3224   20178106.153
        56.0004         51.0004
 -12257688.74347  -9528430.64947  23376608.3924   23376609.9044   23376608.142
        47.0004         42.0004
 -13363109.01748 -10344934.75248  21762315.3594   21762319.2094   21762314.628
        52.0004         48.0004
 -19264635.70649 -14957035.71148  21047041.7214   21047045.9914   21047041.270
        56.0004         51.0004
 17 10 13  1 45 30.0000000  0  9G14G25G02G19G32G12G29G06G24
   -639183.44647   -487129.85246  24661225.8194   24661227.2744   24661226.465
        47.0004         37.0004
 -14911898.40048 -11556681.22747  22098367.1154   22098371.2464   22098367.668
        51.0004         46.0004
 -14620027.23148 -11323082.60248  21694651.9954   21694650.2784   21694652.635
        52.0004         48.0004
  -8300017.50547  -6389330.05247  23288740.1954   23288741.1034   23288741.324
        46.0004         42.0004
  -2897236.80347  -2241154.41546  24150435.5204   24150439.4994   24150435.208
        44.0004         39.0004
 -23843971.81549 -18490818.18248  20175316.2244   20175316.6144   20175316.087
        56.0004         51.0004
 -12354975.88947  -9604238.82347  23358096.2084   23358098.2344   23358094.857
        47.0004         42.0004
 -13346758.01048 -10332193.71148  21765426.8224   21765431.3194   21765426.967
        52.0004         48.0004
 -19203172.34849 -14909142.19348  21058737.6384   21058742.0824   21058736.922
        55.0004         51.0004
 17 10 13  1 46  0.0000000  0  9G14G25G02G19G32G12G29G06G24
   -674799.64947   -514882.73046  24654448.8044   24654448.5524   24654450.067
        43.0004         36.0004
 -14985430.62948 -11613979.09047  22084374.7874   22084378.6994   22084374.874
        51.0004         46.0004
 -14666215.84248 -11359073.71448  21685862.6484   21685861.4294   21685862.504
        52.0004         48.0004
  -8197269.44647  -6309266.62847  23308292.3424   23308292.3364   23308293.498
        46.0004         42.0004
  -2894916.93247  -2239346.73546  24150880.0654   24150881.3024   24150877.989
        44.0004         39.0004
 -23858303.30349 -18501985.57548  20172588.5984   20172589.7884   20172588.320
        56.0004         51.0004
 -12452057.66147  -9679886.93947  23339622.0794   23339622.6674   23339622.809
        47.0004         42.0004
 -13329800.41148 -10318979.99548  21768653.7454   21768658.3544   21768654.203
        52.0004         48.0004
 -19141238.66249 -14860882.18548  21070523.1194   21070527.6214   21070523.062
        55.0004         51.0004
 17 10 13  1 46 30.0000000  0  9G14G25G02G19G32G12G29G06G24
   -709914.45246   -542244.90146  24647766.6054   24647766.5854   24647767.808
        41.0004         36.0004
 -15058779.74348 -11671134.23847  22070416.4334   22070421.1594   22070417.607
        51.0004         46.0004
 -14711948.48348 -11394709.52348  21677159.6814   21677158.8804   21677160.024
        52.0004         48.0004
  -8094384.42447  -6229096.49447  23327871.1724   23327870.8254   23327872.581
        46.0004         42.0004
  -2892047.93947  -2237111.15046  24151424.1694   24151428.8574   24151423.556
        44.0004         39.0004
 -23872305.68949 -18512896.52548  20169924.2734   20169925.4604   20169924.163
        56.0004         51.0004
 -12548935.48747  -9755376.13047  23321184.3334   23321185.4514   23321184.653
        47.0004         42.0004
 -13312239.55148 -10305296.20248  21771996.0224   21772000.0024   21771995.937
        52.0004         48.0004
 -19078839.34449 -14812259.35548  21082397.7644   21082401.4844   21082397.515
        55.0004         51.0004
 17 10 13  1 47  0.0000000  0  9G14G25G02G19G32G12G29G06G24
   -744524.71946   -569213.98346  24641179.2654   24641182.8814   24641181.576
        41.0004         37.0004
 -15131942.81248 -11728144.43547  22056493.6984   22056498.8464   22056493.906
        51.0004         46.0004
 -14757221.89348 -11429987.49847  21668543.9784   21668543.6854   21668544.434
        52.0004         47.0004
  -7991363.08047  -6148820.11247  23347475.5134   23347475.8494   23347477.468
        46.0004         42.0004
  -2888628.57847  -2234446.70646  24152074.4404   24152078.1744   24152075.988
        44.0004         39.0004
 -23885976.57149 -18523549.15648  20167322.5114   20167323.7404   20167322.616
        56.0004         51.0004
 -12645606.38947  -9830704.10847  23302789.1774   23302790.9844   23302789.950
        46.0004         42.0004
 -13294074.17148 -10291141.34848  21775453.1564   21775457.1024   21775453.168
        53.0004         48.0004
 -19015974.38249 -14763273.67848  21094360.0114   21094364.1454   21094359.549
        55.0004         51.0004
 17 10 13  1 47 30.0000000  0  9G14G25G02G19G32G12G29G06G24
   -778628.28746   -595788.13946  24634689.1074   24634691.8594   24634691.561
        41.0004         36.0004
 -15204917.15948 -11785007.57147  22042607.3354   22042611.8084   22042607.373
        51.0004         46.0004
 -14802032.98548 -11464905.21848  21660017.5854   21660016.0964   21660017.985
        52.0004         48.0004
  -7888205.90547  -6068437.88446  23367105.7564   23367104.6784   23367106.212
        46.0004         41.0004
  -2884657.90747  -2231352.66246  24152831.9974   24152835.2314   24152830.269
        44.0004         39.0004
 -23899313.58449 -18533941.63448  20164784.7384   20164785.6914   20164784.522
        56.0004         51.0004
 -12742067.46447  -9905868.58147  23284434.0704   23284435.4804   23284434.561
        47.0004         42.0004
 -13275303.32648 -10276514.72148  21779024.2094   21779028.9064   21779023.707
        53.0004         48.0004
 -18952643.26049 -14713924.75748  21106411.7334   21106416.1124   21106411.320
        55.0004         51.0004
 17 10 13  1 48  0.0000000  0  9G14G25G02G19G32G12G29G06G24
   -812227.28046   -621969.15146  24628297.0634   24628299.3234   24628298.836
        41.0004         36.0004
 -15277704.91948 -11841725.31447  22028755.8264   22028761.6274   22028756.743
        51.0004         47.0004
 -14846383.38648 -11499463.95348  21651577.8654   21651576.0354   21651578.535
        52.0004         48.0004
  -7784918.31347  -5987954.04346  23386759.7974   23386760.7984   23386760.606
        46.0004         41.0004
  -2880139.74847  -2227832.04446  24153690.6564   24153693.1574   24153690.012
        44.0004         39.0004
 -23912319.52949 -18544076.13648  20162309.8604   20162310.6894   20162309.921
        56.0004         51.0004
 -12838320.75547  -9980871.12747  23266116.7244   23266117.9454   23266117.250
        47.0004         42.0004
 -13255930.92748 -10261419.32647  21782710.0754   21782715.1434   21782710.262
        52.0004         47.0004
 -18888850.92249 -14664216.45748  21118551.2134   21118555.1434   21118551.133
        55.0004         51.0004
 17 10 13  1 48 30.0000000  0  9G14G25G02G19G32G12G29G06G24
   -845319.29946   -647755.17446  24622000.0144   24622000.7684   24622000.754
        41.0004         37.0004
 -15350303.46148 -11898295.61447  22014941.0194   22014946.0524   22014940.802
        51.0004         47.0004
 -14890270.17748 -11533661.43948  21643226.2944   21643225.4884   21643226.910
        52.0004         48.0004
  -7681501.02947  -5907369.17246  23406440.2734   23406440.4034   23406440.697
        46.0004         41.0004
  -2875073.31447  -2223884.18646  24154655.2344   24154658.1224   24154653.851
        44.0004         40.0004
 -23924992.39249 -18553951.09248  20159898.2264   20159899.1214   20159897.968
        56.0004         51.0004
 -12934363.61647 -10055709.72047  23247842.1174   23247841.1414   23247842.668
        47.0004         42.0004
 -13235956.10248 -10245854.53748  21786511.5174   21786516.1974   21786511.318
        52.0004         48.0004
 -18824597.92049 -14614149.19148  21130778.2864   21130782.1004   21130778.268
        55.0004         51.0004
 17 10 13  1 49  0.0000000  0  9G14G25G02G19G32G12G29G06G24
   -877903.78946   -673145.69046  24615799.7224   24615799.3004   24615799.451
        41.0004         36.0004
 -15422711.94148 -11954717.82247  22001162.1224   22001167.4924   22001163.165
        51.0004         46.0004
 -14933692.30448 -11567496.84648  21634963.5714   21634962.3474   21634963.844
        52.0004         48.0004
  -7577956.24147  -5826684.93746  23426144.0144   23426143.6744   23426144.947
        46.0004         41.0004
  -2869459.48147  -2219509.78546  24155722.6814   24155726.0934   24155723.203
        44.0004         40.0004
 -23937331.89249 -18563566.28448  20157550.2864   20157551.0054   20157550.171
        56.0004         51.0004
 -13030194.74947 -10130383.31347  23229603.9714   23229606.5474   23229604.569
        47.0004         42.0004
 -13215379.85648 -10229821.07848  21790427.7084   21790431.0124   21790427.450
        52.0004         48.0004
 -18759886.09849 -14563724.40248  21143092.2644   21143096.4754   21143092.149
        55.0004         51.0004
 17 10 13  1 49 30.0000000  0  9G14G25G02G19G32G12G29G06G24
   -909978.91546   -698139.29646  24609696.2014   24609696.9144   24609696.160
        41.0004         37.0004
 -15494928.32848 -12010990.33047  21987421.0124   21987425.5464   21987420.482
        51.0004         47.0004
 -14976647.31648 -11600968.26748  21626789.1454   21626788.5984   21626789.237
        52.0004         48.0004
  -7474285.38947  -5745902.46047  23445872.5754   23445872.1714   23445873.249
        46.0004         42.0004
  -2863298.09647  -2214708.70546  24156895.0644   24156899.6074   24156894.971
        44.0004         39.0004
 -23949336.53449 -18572920.55248  20155266.0084   20155266.4764   20155265.636
        56.0004         51.0004
 -13125812.29747 -10204890.48447  23211410.0984   23211412.1084   23211409.932
        47.0004         42.0004
 -13194201.91948 -10213318.79348  21794457.6324   21794461.2584   21794456.918
        52.0004         48.0004
 -18694715.65949 -14512942.25648  21155493.8754   21155498.4024   21155494.111
        55.0004         51.0004
 17 10 13  1 50  0.0000000  0  9G14G25G02G19G32G12G29G06G24
   -941546.61747   -722737.54346  24603688.3224   24603690.0974   24603689.335
        42.0004         37.0004
 -15566954.34048 -12067114.50247  21973714.5044   21973717.8614   21973714.683
        51.0004         47.0004
 -15019136.78848 -11634076.93148  21618703.9824   21618702.4974   21618704.562
        52.0004         48.0004
  -7370493.63847  -5665025.77347  23465623.3714   23465622.9484   23465623.982
        46.0004         42.0004
  -2856592.74847  -2209483.77246  24158170.6344   24158175.7994   24158169.081
        44.0004         39.0004
 -23961008.54349 -18582015.62148  20153044.9044   20153045.5234   20153044.639
        56.0004         51.0004
 -13221217.85347 -10279232.46247  23193254.4334   23193256.7244   23193254.168
        47.0004         42.0004
 -13172425.92948 -10196350.48547  21798600.7744   21798605.7254   21798600.079
        52.0004         47.0004
 -18629091.62749 -14461806.65548  21167981.6124   21167985.9694   21167981.088
        55.0004         51.0004
 17 10 13  1 50 30.0000000  0  9G14G25G02G19G32G12G29G06G24
   -972604.33747   -746938.36246  24597778.7354   24597780.0434   24597778.495
        42.0004         37.0004
 -15638787.05148 -12123088.05647  21960045.1224   21960049.5404   21960044.530
        51.0004         47.0004
 -15061157.44648 -11666820.29248  21610707.1124   21610707.9784   21610707.494
        53.0004         48.0004
  -7266581.01347  -5584054.89847  23485397.7004   23485396.8854   23485398.811
        47.0004         42.0004
  -2849342.38647  -2203834.15446  24159551.1584   24159554.2394   24159549.940
        44.0004         39.0004
 -23972345.49449 -18590849.60648  20150887.1454   20150888.3684   20150886.792
        56.0004         51.0004
 -13316408.70947 -10353407.16047  23175141.2054   23175143.4294   23175139.857
        47.0004         42.0004
 -13150050.87848 -10178915.37548  21802859.2874   21802863.0884   21802858.861
        52.0004         48.0004
 -18563013.70449 -14410317.37848  21180555.7804   21180559.8804   21180555.838
        55.0004         51.0004
 17 10 13  1 51  0.0000000  0  9G14G25G02G19G32G12G29G06G24
  -1003149.32846   -770739.64446  24591965.2954   24591965.8964   24591966.849
        41.0004         36.0004
 -15710423.50148 -12178908.66947  21946412.3534   21946417.7784   21946413.348
        51.0004         47.0004
 -15102706.00448 -11699195.77548  21602800.7084   21602800.4474   21602801.282
        53.0004         48.0004
  -7162547.80647  -5502990.07847  23505193.9754   23505194.1334   23505194.899
        47.0004         42.0004
  -2841545.94147  -2197759.00846  24161035.1754   24161037.2404   24161033.622
        44.0004         39.0004
 -23983345.19149 -18599420.78848  20148794.3054   20148795.1294   20148794.467
        56.0004         51.0004
 -13411381.48447 -10427411.89647  23157067.3004   23157071.9004   23157067.592
        47.0004         42.0004
 -13127075.71448 -10161012.63948  21807231.2674   21807235.8534   21807231.314
        52.0004         48.0004
 -18496481.94549 -14358474.46048  21193216.5814   21193220.5694   21193216.254
        55.0004         51.0004
 17 10 13  1 51 30.0000000  0  9G14G25G02G19G32G12G29G06G24
  -1033185.06246   -794144.12946  24586250.3254   24586253.8574   24586251.216
        41.0004         37.0004
 -15781866.75248 -12234578.74547  21932817.5284   21932821.7994   21932818.036
        52.0004         47.0004
 -15143785.49548 -11731205.75248  21594982.9754   21594982.9844   21594983.517
        52.0004         48.0004
  -7058400.37047  -5421836.24846  23525011.9164   23525011.9914   23525012.367
        46.0004         41.0004
  -2833208.39647  -2191262.22146  24162620.7684   24162625.8564   24162621.695
        44.0004         40.0004
 -23994011.55349 -18607732.24448  20146764.3814   20146765.1234   20146763.958
        56.0004         51.0004
 -13506139.11447 -10501248.99447  23139034.5414   23139039.0464   23139037.479
        47.0004         42.0004
 -13103505.41848 -10142646.18248  21811716.7664   21811719.9764   21811716.551
        52.0004         48.0004
 -18429502.45149 -14306282.66148  21205962.1224   21205966.6874   21205961.477
        55.0004         51.0004
 17 10 13  1 52  0.0000000  0  9G14G25G02G19G32G12G29G06G24
  -1062706.91546   -817148.19246  24580632.5154   24580634.2924   24580633.047
        41.0004         36.0004
 -15853111.94848 -12290094.49047  21919259.5964   21919264.5904   21919259.574
        52.0004         47.0004
 -15184390.60148 -11762846.07448  21587256.7234   21587255.8364   21587256.771
        52.0004         48.0004
  -6954137.49747  -5340592.45446  23544852.3524   23544852.5314   23544853.885
        46.0004         41.0004
  -2824326.93447  -2184341.63046  24164310.9054   24164315.3984   24164309.188
        44.0004         40.0004
 -24004340.21249 -18615780.54648  20144799.1494   20144799.7014   20144798.946
        56.0004         51.0004
 -13600676.75047 -10574914.68547  23121044.1384   23121048.1154   23121045.629
        47.0004         42.0004
 -13079337.16148 -10123813.76447  21816315.6254   21816319.8144   21816315.635
        52.0004         47.0004
 -18362072.57049 -14253739.90448  21218793.5784   21218798.0384   21218793.175
        55.0004         50.0004
 17 10 13  1 52 30.0000000  0  9G14G25G02G19G32G12G29G06G24
  -1091715.90146   -839752.63146  24575112.7214   24575111.3504   24575113.312
        41.0004         36.0004
 -15924159.48448 -12345456.21747  21905740.4494   21905744.9344   21905740.769
        52.0004         47.0004
 -15224521.63048 -11794116.98748  21579619.6874   21579619.9424   21579620.257
        52.0004         48.0004
  -6849762.32847  -5259261.16946  23564714.0644   23564715.6734   23564715.294
        46.0004         41.0004
  -2814903.93247  -2176999.05546  24166104.4034   24166107.5624   24166105.468
        44.0004         40.0004
 -24014331.59749 -18623566.03348  20142897.2854   20142898.2834   20142897.350
        56.0004         51.0004
 -13694994.82947 -10648409.29147  23103097.1164   23103099.4454   23103096.363
        47.0004         42.0004
 -13054573.31148 -10104517.24247  21821028.3114   21821031.1444   21821028.550
        52.0004         47.0004
 -18294195.94749 -14200849.03548  21231710.3104   21231714.5824   21231710.322
        55.0004         50.0004
 17 10 13  1 53  0.0000000  0  9G14G25G02G19G32G12G29G06G24
  -1120210.74046   -861956.41846  24569689.3854   24569691.3704   24569690.123
        40.0004         36.0004
 -15995008.30848 -12400663.09347  21892258.6914   21892262.7184   21892258.699
        52.0004         47.0004
 -15264177.42548 -11825017.59248  21572073.1974   21572073.1524   21572072.959
        52.0004         48.0004
  -6745277.00947  -5177844.03446  23584597.2434   23584596.5124   23584597.767
        45.0004         41.0004
  -2804940.37147  -2169235.28146  24167999.5864   24168005.0864   24167998.907
        44.0004         40.0004
 -24023985.54049 -18631088.58548  20141060.3244   20141061.6784   20141060.363
        56.0004         51.0004
 -13789092.52847 -10721732.14047  23085191.9464   23085192.9764   23085192.161
        47.0004         43.0004
 -13029214.90648 -10084757.45148  21825853.4564   21825857.5834   21825852.924
        52.0004         48.0004
 -18225874.39149 -14147611.47348  21244711.4204   21244715.3934   21244711.294
        55.0004         50.0004
 17 10 13  1 53 30.0000000  0  9G14G25G02G19G32G12G29G06G24
  -1148191.00846   -883759.24446  24564365.0464   24564366.8274   24564364.900
        41.0004         36.0004
 -16065656.88548 -12455713.92947  21878814.4934   21878818.7774   21878814.820
        52.0004         47.0004
 -15303356.28248 -11855546.54648  21564617.6854   21564617.4754   21564618.519
        52.0004         48.0004
  -6640683.46747  -5096342.57246  23604499.7184   23604501.3034   23604501.313
        46.0004         41.0004
  -2794436.67347  -2161050.61446  24170000.5994   24170002.7124   24170000.536
        44.0004         40.0004
 -24033301.18849 -18638347.52948  20139287.6094   20139288.4734   20139287.503
        56.0004         51.0004
 -13882967.75947 -10794881.68047  23067328.0134   23067330.4374   23067327.463
        47.0004         43.0004
 -13003262.46048 -10064534.76348  21830792.1494   21830796.1184   21830792.141
        52.0004         48.0004
 -18157109.27449 -14094028.27148  21257796.9524   21257800.9674   21257796.608
        55.0004         50.0004
 17 10 13  1 54  0.0000000  0  9G14G25G02G19G32G12G29G06G24
  -1175656.55547   -905161.00646  24559138.6864   24559140.7654   24559139.721
        42.0004         37.0004
 -16136104.78048 -12510608.39147  21865408.2594   21865412.8694   21865408.505
        52.0004         47.0004
 -15342057.96948 -11885703.69748  21557253.3924   21557252.7494   21557253.865
        52.0004         48.0004
  -6535984.27047  -5014758.79946  23624423.5284   23624424.6584   23624424.033
        46.0004         41.0004
  -2783394.56847  -2152446.38246  24172100.8214   24172104.4544   24172099.757
        44.0004         40.0004
 -24042279.07349 -18645343.27948  20137578.8714   20137579.9144   20137579.110
        56.0004         51.0004
 -13976620.59247 -10867857.88047  23049506.8174   23049508.0434   23049506.739
        47.0004         42.0004
 -12976717.62248 -10043850.47747  21835843.3314   21835847.7514   21835843.473
        52.0004         47.0004
 -18087903.65849 -14040101.82248  21270966.0674   21270970.4274   21270965.653
        55.0004         50.0004
 17 10 13  1 54 30.0000000  0  9G14G25G02G19G32G12G29G06G24
  -1202605.28947   -926160.01246  24554011.2004   24554013.1634   24554011.175
        42.0004         38.0004
 -16206349.30348 -12565344.37747  21852040.4184   21852045.8954   21852041.206
        52.0004         47.0004
 -15380279.29748 -11915486.53548  21549980.0424   21549979.7424   21549980.975
        53.0004         48.0004
  -6431180.17847  -4933093.26646  23644367.1614   23644368.3704   23644367.443
        46.0004         41.0004
  -2771813.42347  -2143422.12146  24174305.0624   24174308.1844   24174304.363
        44.0004         39.0004
 -24050916.72649 -18652073.91648  20135935.5194   20135936.4934   20135935.548
        56.0004         51.0004
 -14070047.77447 -10940658.27647  23031725.9994   23031728.9644   23031727.498
        47.0004         42.0004
 -12949579.87548 -10022704.16447  21841007.4454   21841011.3484   21841007.385
        52.0004         47.0004
 -18018257.19549 -13985831.86448  21284219.6584   21284223.8544   21284219.294
        55.0004         50.0004
 17 10 13  1 55  0.0000000  0  9G14G25G02G19G32G12G29G06G24
  -1229037.96347   -946756.90846  24548982.3154   24548982.0734   24548981.051
        42.0004         37.0004
 -16276390.99348 -12619922.32847  21838712.7764   21838717.4864   21838712.752
        52.0004         47.0004
 -15418021.11248 -11944895.72048  21542797.8394   21542797.5384   21542798.180
        53.0004         48.0004
  -6326274.81047  -4851348.82646  23664331.0384   23664330.7914   23664331.344
        46.0004         41.0004
  -2759695.96347  -2133979.95046  24176609.7384   24176615.1094   24176608.920
        44.0004         39.0004
 -24059215.39349 -18658540.40348  20134356.0394   20134357.4134   20134356.405
        56.0004         51.0004
 -14163250.18547 -11013283.53147  23013992.0274   23013993.3544   23013990.725
        47.0004         42.0004
 -12921851.88148 -10001097.92748  21846284.2454   21846288.2734   21846283.719
        52.0004         48.0004
 -17948173.36149 -13931221.09248  21297556.4584   21297560.5834   21297556.378
        55.0004         50.0004
 17 10 13  1 55 30.0000000  0  9G14G25G02G19G32G12G29G06G24
  -1254955.05146   -966952.05346  24544049.0074   24544049.2054   24544047.903
        41.0004         36.0004
 -16346229.74248 -12674342.12347  21825423.1564   21825427.8174   21825423.264
        52.0004         47.0004
 -15455282.95248 -11973930.90148  21535707.0064   21535706.5144   21535708.007
        53.0004         48.0004
  -6221271.39047  -4769527.97446  23684312.9984   23684313.5034   23684313.242
        46.0004         41.0004
  -2747044.18347  -2124121.45346  24179018.1824   24179021.3684   24179016.381
        44.0004         40.0004
 -24067175.69349 -18664743.23348  20132841.7754   20132842.4344   20132841.496
        56.0004         51.0004
 -14256227.71847 -11085733.51947  22996297.7484   22996300.7764   22996299.100
        47.0004         42.0004
 -12893535.70348  -9979033.37447  21851671.9624   21851676.0234   21851671.609
        52.0004         47.0004
 -17877654.91149 -13876271.65848  21310975.3564   21310979.9064   21310975.230
        55.0004         50.0004
 17 10 13  1 56  0.0000000  0  9G14G25G02G19G32G12G29G06G24
  -1280350.31846   -986740.58446  24539216.0444   24539215.4344   24539214.745
        41.0004         36.0004
 -16415858.80648 -12728598.52747  21812173.2554   21812177.9434   21812172.817
        52.0004         47.0004
 -15492058.02648 -12002586.79248  21528709.0084   21528708.5804   21528710.138
        53.0004         48.0004
  -6116166.37447  -4687627.95346  23704313.6354   23704314.1784   23704313.634
        46.0004         41.0004
  -2733853.64347  -2113843.13646  24181527.3064   24181531.4084   24181528.593
        45.0004         40.0004
 -24074791.72549 -18670677.79448  20131392.5644   20131392.9824   20131392.324
        56.0004         51.0004
 -14348973.81847 -11158003.18447  22978650.2434   22978651.1324   22978649.832
        47.0004         42.0004
 -12864626.80748  -9956506.96048  21857173.4224   21857178.1034   21857173.440
        52.0004         48.0004
 -17806698.82649 -13820981.21748  21324477.6264   21324482.3054   21324477.318
        55.0004         50.0004
 17 10 13  1 56 30.0000000  0  9G14G25G02G19G32G12G29G06G24
  -1305231.53846  -1006128.56346  24534481.5564   24534482.7764   24534481.621
        41.0004         37.0004
 -16485285.24348 -12782697.04347  21798961.6644   21798966.4014   21798960.866
        52.0004         47.0004
 -15528353.58848 -12030869.03148  21521802.4644   21521801.6264   21521802.828
        53.0004         48.0004
  -6010969.76147  -4605656.58646  23724332.4954   23724332.0564   23724332.815
        46.0004         41.0004
  -2720133.46747  -2103152.12046  24184138.6524   24184141.9284   24184138.279
        45.0004         40.0004
 -24082070.83249 -18676349.81748  20130007.0834   20130007.7604   20130006.925
        56.0004         51.0004
 -14441495.42047 -11230097.92047  22961042.5874   22961046.2314   22961042.387
        47.0004         43.0004
 -12835134.50648  -9933525.94348  21862785.6014   21862789.9944   21862785.391
        52.0004         48.0004
 -17735314.48349 -13765357.06848  21338062.1554   21338066.3374   21338062.317
        55.0004         50.0004
 17 10 13  1 57  0.0000000  0  9G14G25G02G19G32G12G29G06G24
  -1329591.84646  -1025110.65546  24529846.6384   24529847.1854   24529845.906
        41.0004         37.0004
 -16554501.60048 -12836631.86247  21785789.7064   21785795.2334   21785790.554
        52.0004         47.0004
 -15564162.17148 -12058771.80548  21514988.6034   21514987.5554   21514989.184
        53.0004         48.0004
  -5905677.33447  -4523610.55846  23744368.5014   23744368.7524   23744368.812
        46.0004         41.0004
  -2705878.50747  -2092044.36446  24186851.5094   24186854.6934   24186850.627
        45.0004         40.0004
 -24089006.07949 -18681753.90248  20128687.7204   20128688.4214   20128687.608
        56.0004         51.0004
 -14533784.90547 -11302011.79647  22943480.6054   22943483.5904   22943480.409
        47.0004         43.0004
 -12805053.60248  -9910086.27047  21868509.9494   21868514.1654   21868509.587
        52.0004         47.0004
 -17663498.41049 -13709396.50748  21351727.8594   21351732.0634   21351728.244
        55.0004         50.0004
 17 10 13  1 57 30.0000000  0  9G14G25G02G19G32G12G29G06G24
  -1353433.99246  -1043688.94846  24525309.3814   24525310.6294   24525309.754
        41.0004         37.0004
 -16623509.78748 -12890404.46548  21772658.1754   21772663.3134   21772658.363
        52.0004         48.0004
 -15599485.69348 -12086296.60648  21508266.3694   21508266.4304   21508266.721
        53.0004         48.0004
  -5800294.54547  -4441494.12747  23764422.1734   23764423.2274   23764423.442
        46.0004         42.0004
  -2691092.94147  -2080523.16446  24189664.0094   24189667.1214   24189666.252
        44.0004         39.0004
 -24095600.34649 -18686892.29048  20127432.8334   20127433.6144   20127432.462
        56.0004         52.0004
 -14625844.44048 -11373746.47547  22925964.7204   22925964.5044   22925963.463
        48.0004         43.0004
 -12774388.33048  -9886191.24747  21874345.0664   21874348.9414   21874345.488
        52.0004         47.0004
 -17591254.75749 -13653102.76048  21365475.3884   21365479.7034   21365474.924
        54.0004         50.0004
 17 10 13  1 58  0.0000000  0  9G14G25G02G19G32G12G29G06G24
  -1376754.13947  -1061860.49846  24520872.2844   24520874.1704   24520872.496
        42.0004         37.0004
 -16692305.50048 -12944011.51148  21759567.2944   21759571.9074   21759567.798
        52.0004         48.0004
 -15634320.05948 -12113440.25148  21501637.9544   21501637.2864   21501638.361
        53.0004         48.0004
  -5694820.04147  -4359306.20846  23784492.5244   23784493.0084   23784494.232
        46.0004         41.0004
  -2675774.79047  -2068586.93246  24192579.8454   24192582.6904   24192579.993
        44.0004         39.0004
 -24101850.14149 -18691762.25348  20126243.6314   20126244.1274   20126243.526
        56.0004         52.0004
 -14717670.00248 -11445298.84547  22908489.3534   22908491.9614   22908489.358
        48.0004         43.0004
 -12743136.65948  -9861839.29547  21880292.1804   21880296.3654   21880291.932
        52.0004         47.0004
 -17518582.69849 -13596475.18648  21379304.5224   21379308.5244   21379304.481
        54.0004         50.0004
 17 10 13  1 58 30.0000000  0  9G14G25G02G19G32G12G29G06G24
  -1399556.49947  -1079628.57346  24516531.7274   24516536.1704   24516533.726
        42.0004         37.0004
 -16760892.31348 -12997455.78048  21746515.9304   21746520.6134   21746516.061
        52.0004         48.0004
 -15668668.81348 -12140205.50048  21495101.6324   21495101.3854   21495101.956
        53.0004         48.0004
  -5589260.53747  -4277052.03346  23804580.4444   23804579.5844   23804582.025
        46.0004         41.0004
  -2659930.01547  -2056240.32946  24195594.5704   24195597.9384   24195593.636
        44.0004         39.0004
 -24107759.38749 -18696366.85248  20125119.0894   20125119.8314   20125119.071
        56.0004         52.0004
 -14809265.16948 -11516671.68047  22891058.6674   22891059.9594   22891058.340
        48.0004         44.0004
 -12711304.54448  -9837035.05747  21886349.6904   21886353.4554   21886348.571
        52.0004         47.0004
 -17445488.33849 -13539518.55648  21393214.0094   21393217.9404   21393213.882
        54.0004         50.0004
 17 10 13  1 59  0.0000000  0  9G14G25G02G19G32G12G29G06G24
  -1421835.59146  -1096988.89246  24512292.7744   24512296.4424   24512292.009
        41.0004         36.0004
 -16829263.86448 -13050732.29448  21733504.4864   21733509.8394   21733505.615
        53.0004         48.0004
 -15702525.62948 -12166587.41548  21488658.8884   21488658.2854   21488659.879
        53.0004         48.0004
  -5483612.84147  -4194729.15446  23824684.5664   23824683.9484   23824686.069
        46.0004         41.0004
  -2643554.44547  -2043480.17146  24198711.5514   24198715.8644   24198712.994
        44.0004         40.0004
 -24113322.45949 -18700701.70748  20124060.4224   20124061.4454   20124060.254
        56.0004         51.0004
 -14900623.60648 -11587860.05847  22873673.9834   22873676.4024   22873673.939
        48.0004         43.0004
 -12678887.95248  -9811775.36247  21892518.7504   21892522.4964   21892518.043
        52.0004         47.0004
 -17371969.02749 -13482230.80148  21407204.4704   21407207.9664   21407204.326
        54.0004         50.0004
 17 10 13  1 59 30.0000000  0  9G14G25G02G19G32G12G29G06G24
  -1443594.81646  -1113944.17346  24508152.3784   24508152.7814   24508153.891
        41.0004         36.0004
 -16897423.06748 -13103843.34548  21720534.0714   21720538.4654   21720534.597
        52.0004         48.0004
 -15735893.70448 -12192588.50148  21482308.9254   21482308.2964   21482309.051
        53.0004         48.0004
  -5377882.99347  -4112342.26846  23844803.7654   23844803.8944   23844804.308
        45.0004         41.0004
  -2626653.49347  -2030310.60746  24201928.8154   24201931.4124   24201927.581
        45.0004         40.0004
 -24118543.30049 -18704769.87948  20123066.4804   20123067.6244   20123066.411
        56.0004         51.0004
 -14991748.63448 -11658866.55547  22856334.7154   22856335.8074   22856333.360
        48.0004         44.0004
 -12645892.25148  -9786064.42147  21898797.4564   21898801.7544   21898797.315
        52.0004         47.0004
 -17298030.78849 -13424616.59548  21421274.1704   21421278.7024   21421274.076
        54.0004         50.0004
 17 10 13  2  0  0.0000000  0  9G14G25G02G19G32G12G29G06G24
  -1464831.80946  -1130492.50446  24504111.4254   24504113.4854   24504110.549
        41.0004         37.0004
 -16965366.40348 -13156786.19248  21707605.8404   21707609.0974   21707606.262
        52.0004         48.0004
 -15768769.64148 -12218206.09948  21476053.1684   21476053.0124   21476054.107
        53.0004         48.0004
  -5272070.67547  -4029891.14546  23864939.2444   23864939.6454   23864940.247
        45.0004         40.0004
  -2609226.04147  -2016730.79746  24205244.1154   24205247.7594   24205245.048
        45.0004         40.0004
 -24123418.63849 -18708568.84048  20122138.6554   20122139.7324   20122138.764
        56.0004         51.0004
 -15082636.29548 -11729688.08347  22839038.9044   22839038.9974   22839039.560
        48.0004         44.0004
 -12612316.31948  -9759901.35847  21905186.4604   21905190.9344   21905186.661
        52.0004         47.0004
 -17223672.82149 -13366675.33248  21435423.7754   21435428.3454   21435423.701
        54.0004         50.0004
 17 10 13  2  0 30.0000000  0  9G14G25G02G19G32G12G29G06G24
  -1485545.25846  -1146632.82346  24500168.5554   24500171.7094   24500170.582
        41.0004         37.0004
 -17033092.13048 -13209559.47148  21694717.5234   21694721.7024   21694717.661
        52.0004         48.0004
 -15801151.92648 -12243439.02348  21469890.3404   21469889.6764   21469891.217
        53.0004         48.0004
  -5166177.54747  -3947377.00946  23885089.5714   23885091.7724   23885090.107
        45.0004         40.0004
  -2591272.73447  -2002741.22646  24208659.4764   24208664.1904   24208658.542
        44.0004         39.0004
 -24127947.73249 -18712097.99548  20121277.1104   20121277.6304   20121277.087
        56.0004         51.0004
 -15173285.31248 -11800323.65747  22821788.2934   22821789.8714   22821787.842
        48.0004         43.0004
 -12578160.86248  -9733286.71947  21911686.1654   21911689.8444   21911685.833
        52.0004         47.0004
 -17148897.26749 -13308408.67648  21449653.6304   21449657.8384   21449652.936
        54.0004         50.0004
 17 10 13  2  1  0.0000000  0  9G14G25G02G19G32G12G29G06G24
  -1505737.72047  -1162367.20546  24496325.6034   24496329.2004   24496326.024
        42.0004         37.0004
 -17100601.97048 -13262164.52448  21681871.0934   21681875.1844   21681871.118
        52.0004         48.0004
 -15833042.42948 -12268288.75648  21463822.2554   21463821.6864   21463822.647
        53.0004         48.0004
  -5060208.45147  -3864803.70746  23905255.4884   23905255.5254   23905255.839
        45.0004         40.0004
  -2572797.73147  -1988345.13746  24212177.5074   24212180.4854   24212175.733
        45.0004         40.0004
 -24132132.83349 -18715359.10348  20120480.7084   20120481.5114   20120480.503
        56.0004         51.0004
 -15263697.44348 -11870774.65847  22804582.3814   22804584.1264   22804581.543
        48.0004         43.0004
 -12543430.09848  -9706223.77547  21918294.7004   21918299.9244   21918295.514
        52.0004         47.0004
 -17073708.06149 -13249819.70748  21463961.6604   21463965.9344   21463961.507
        54.0004         50.0004
 17 10 13  2  1 30.0000000  0  9G14G25G02G19G32G12G29G06G24
  -1525407.28647  -1177694.15246  24492583.5584   24492585.2574   24492583.183
        42.0004         37.0004
 -17167893.22348 -13314599.26148  21669065.8144   21669070.4574   21669065.692
        52.0004         48.0004
 -15864438.73948 -12292753.39448  21457847.3204   21457847.1904   21457848.424
        53.0004         48.0004
  -4954163.36547  -3782171.15746  23925435.7924   23925435.0874   23925436.639
        45.0004         40.0004
  -2553800.91147  -1973542.40746  24215790.8444   24215795.1304   24215791.664
        45.0004         40.0004
 -24135972.08249 -18718350.71548  20119749.8304   20119750.7874   20119749.563
        56.0004         51.0004
 -15353870.09748 -11941039.03447  22787424.9384   22787425.7484   22787424.531
        48.0004         44.0004
 -12508123.85348  -9678712.39647  21925013.6764   21925017.9784   21925013.616
        52.0004         47.0004
 -16998106.63149 -13190909.52348  21478347.8404   21478352.3784   21478347.283
        54.0004         49.0004
 17 10 13  2  2  0.0000000  0  9G14G25G02G19G32G12G29G06G24
  -1544552.28746  -1192612.36046  24488939.2214   24488941.8044   24488940.419
        41.0004         36.0004
 -17234962.93148 -13366861.35147  21656301.9344   21656306.6444   21656302.239
        52.0004         47.0004
 -15895338.06148 -12316830.77148  21451967.3784   21451966.7544   21451968.324
        53.0004         48.0004
  -4848042.84647  -3699479.83946  23945629.9434   23945629.9064   23945631.161
        45.0004         40.0004
  -2534281.74647  -1958332.67846  24219505.6154   24219509.7254   24219504.794
        45.0004         40.0004
 -24139463.11749 -18721070.99548  20119085.4774   20119086.4064   20119085.430
        56.0004         51.0004
 -15443800.54148 -12011114.70447  22770310.2304   22770312.4144   22770310.370
        48.0004         44.0004
 -12472241.64948  -9650752.22947  21931841.0034   21931846.2094   21931840.405
        52.0004         47.0004
 -16922092.41249 -13131677.67948  21492813.0834   21492817.1684   21492813.429
        54.0004         49.0004
 17 10 13  2  2 30.0000000  0  9G14G25G02G19G32G12G29G06G24
  -1563173.95046  -1207122.74946  24485397.8694   24485399.6644   24485395.660
        41.0004         37.0004
 -17301811.68248 -13418951.28948  21643581.4764   21643585.8144   21643581.727
        52.0004         48.0004
 -15925741.46848 -12340521.72348  21446181.9254   21446181.1694   21446182.469
        53.0004         48.0004
  -4741850.52047  -3616732.56846  23965838.5334   23965837.1824   23965839.221
        45.0004         40.0004
  -2514243.41247  -1942718.38846  24223319.4334   24223321.5114   24223318.407
        45.0004         40.0004
 -24142607.20349 -18723520.92848  20118487.4794   20118488.1314   20118487.353
        56.0004         51.0004
 -15533489.98048 -12081002.56347  22753242.9434   22753244.2514   22753243.556
        49.0004         44.0004
 -12435786.66748  -9622345.74247  21938778.6184   21938783.1324   21938778.889
        52.0004         47.0004
 -16845669.77649 -13072127.58448  21507355.3834   21507359.5404   21507355.159
        54.0004         49.0004
 17 10 13  2  3  0.0000000  0  9G14G25G02G19G32G12G29G06G24
  -1581270.83346  -1221224.19646  24481954.0894   24481955.5324   24481954.040
        41.0004         36.0004
 -17368437.21848 -13470867.26948  21630903.7144   21630907.8224   21630904.772
        53.0004         48.0004
 -15955646.86048 -12363824.60848  21440490.8464   21440491.1144   21440491.620
        53.0004         49.0004
  -4635587.07447  -3533929.89846  23986058.3064   23986057.1974   23986059.254
        45.0004         40.0004
  -2493686.16147  -1926699.75546  24227230.7704   24227234.7314   24227230.201
        45.0004         40.0004
 -24145403.20049 -18725699.62248  20117955.4824   20117956.1734   20117955.531
        56.0004         51.0004
 -15622935.63748 -12150700.46647  22736222.3094   22736224.3734   22736222.711
        49.0004         44.0004
 -12398759.23248  -9593493.18447  21945825.1904   21945829.1504   21945825.218
        52.0004         47.0004
 -16768839.86349 -13012260.13548  21521976.3904   21521980.4244   21521975.981
        54.0004         49.0004
 17 10 13  2  3 30.0000000  0  9G14G25G02G19G32G12G29G06G24
  -1598845.77246  -1234918.96346  24478608.8654   24478609.7964   24478609.305
        41.0004         36.0004
 -17434841.30348 -13522610.69348  21618266.9644   21618272.1464   21618267.023
        53.0004         48.0004
 -15985056.37848 -12386741.10348  21434894.6664   21434894.0974   21434895.302
        53.0004         48.0004
  -4529257.68547  -3451075.83046  24006292.1114   24006291.9944   24006293.266
        45.0004         40.0004
  -2472614.40347  -1910280.20746  24231240.8594   24231244.6774   24231239.442
        45.0004         40.0004
 -24147853.36749 -18727608.83048  20117489.1394   20117490.1274   20117489.040
        56.0004         52.0004
 -15712139.90948 -12220210.26647  22719247.3364   22719249.4214   22719248.496
        49.0004         44.0004
 -12361163.71048  -9564197.97247  21952978.9784   21952984.1164   21952978.576
        52.0004         47.0004
 -16691607.18549 -12952078.83948  21536672.8654   21536676.7304   21536673.156
        54.0004         49.0004
 17 10 13  2  4  0.0000000  0  9G14G25G02G19G32G12G29G06G24
  -1615894.76446  -1248203.88846  24475363.6914   24475366.5944   24475365.638
        41.0004         36.0004
 -17501018.68448 -13574177.48148  21605673.6724   21605677.6754   21605673.676
        53.0004         48.0004
 -16013965.12248 -12409267.37448  21429393.4034   21429392.4344   21429393.526
        53.0004         48.0004
  -4422860.00347  -3368168.54346  24026538.8904   24026537.9324   24026539.772
        45.0004         40.0004
  -2451025.49547  -1893457.70546  24235348.3614   24235351.9854   24235348.464
        45.0004         40.0004
 -24149952.96149 -18729244.86848  20117089.5564   20117090.3574   20117089.577
        56.0004         51.0004
 -15801097.33348 -12289527.72047  22702319.7474   22702320.3844   22702319.599
        49.0004         44.0004
 -12322997.50448  -9534458.05747  21960242.2044   21960245.8884   21960241.744
        52.0004         47.0004
 -16613970.01649 -12891582.35548  21551446.7504   21551450.6304   21551446.157
        54.0004         49.0004
 17 10 13  2  4 30.0000000  0  9G14G25G02G19G32G12G29G06G24
  -1632420.80446  -1261081.32346  24472219.4974   24472220.5744   24472221.142
        41.0004         36.0004
 -17566971.79048 -13625569.50048  21593123.3694   21593127.5754   21593123.908
        53.0004         48.0004
 -16042375.94048 -12431405.66348  21423986.9114   21423986.6874   21423987.111
        53.0004         48.0004
  -4316399.81947  -3285212.56346  24046797.1644   24046797.7974   24046798.412
        45.0004         40.0004
  -2428924.42247  -1876236.09446  24239554.9724   24239558.1504   24239553.096
        44.0004         40.0004
 -24151705.28249 -18730610.30448  20116756.5894   20116756.8804   20116756.373
        56.0004         52.0004
 -15889810.81248 -12358655.08247  22685437.9694   22685437.9064   22685438.107
        49.0004         44.0004
 -12284265.62248  -9504277.35347  21967612.9294   21967616.7684   21967612.625
        52.0004         47.0004
 -16535934.74249 -12830775.66148  21566295.8324   21566301.2274   21566296.087
        54.0004         49.0004
 17 10 13  2  5  0.0000000  0  9G14G25G02G19G32G12G29G06G24
  -1648419.47246  -1273547.80046  24469174.7654   24469178.8754   24469175.468
        41.0004         36.0004
 -17632695.18748 -13676782.52348  21580616.3794   21580621.0904   21580616.397
        53.0004         48.0004
 -16070283.55948 -12453151.84148  21418676.4024   21418676.1594   21418677.402
        53.0004         48.0004
  -4209874.59547  -3202205.89146  24067069.5694   24067067.9724   24067069.955
        44.0004         40.0004
  -2406308.38747  -1858613.21146  24243858.0114   24243863.9694   24243857.985
        45.0004         40.0004
 -24153105.91749 -18731701.70648  20116489.8014   20116490.2794   20116489.558
        56.0004         51.0004
 -15978275.18948 -12427588.35747  22668603.7574   22668605.7764   22668603.005
        49.0004         44.0004
 -12244965.31548  -9473653.71947  21975090.2354   21975095.9844   21975089.619
        52.0004         47.0004
 -16457498.03549 -12769656.16848  21581222.5144   21581227.0304   21581222.486
        54.0004         49.0004
 17 10 13  2  5 30.0000000  0  9G14G25G02G19G32G12G29G06G24
  -1663894.42846  -1285606.20846  24466230.7714   24466231.7684   24466230.974
        41.0004         37.0004
 -17698191.11248 -13727818.29548  21568153.0604   21568157.6054   21568153.372
        53.0004         48.0004
 -16097690.94548 -12474508.23548  21413460.6914   21413460.2314   21413461.550
        53.0004         48.0004
  -4103289.94247  -3119152.90246  24087350.7114   24087351.4074   24087351.785
        44.0004         39.0004
  -2383182.54347  -1840593.08146  24248259.6404   24248262.1954   24248258.272
        45.0004         40.0004
 -24154157.52849 -18732521.13348  20116289.4874   20116290.4394   20116289.246
        56.0004         52.0004
 -16066493.13348 -12496329.60047  22651817.4474   22651818.2634   22651817.337
        49.0004         44.0004
 -12205101.68848  -9442591.14647  21982676.9214   21982681.8534   21982677.165
        52.0004         47.0004
 -16378666.21149 -12708228.78148  21596223.7014   21596227.4764   21596223.667
        54.0004         49.0004
 17 10 13  2  6  0.0000000  0  9G14G25G02G19G32G12G29G06G24
  -1678843.67646  -1297254.97546  24463385.5904   24463386.3844   24463384.921
        41.0004         37.0004
 -17763456.63748 -13778674.54448  21555734.0994   21555737.5144   21555734.147
        53.0004         48.0004
 -16124595.47848 -12495472.78748  21408340.9904   21408340.1894   21408341.603
        53.0004         48.0004
  -3996645.82347  -3036053.58546  24107644.0924   24107644.6494   24107645.034
        44.0004         39.0004
  -2359546.51147  -1822175.42746  24252756.9264   24252761.8734   24252756.068
        45.0004         41.0004
 -24154858.10649 -18733067.03048  20116156.2994   20116156.9004   20116156.305
        56.0004         52.0004
 -16154461.80048 -12564876.59347  22635075.6094   22635078.8454   22635076.140
        49.0004         44.0004
 -12164674.44748  -9411089.38647  21990369.8444   21990373.2694   21990369.970
        52.0004         47.0004
 -16299439.61149 -12646493.78348  21611299.6444   21611303.7964   21611299.826
        54.0004         49.0004
 17 10 13  2  6 30.0000000  0  9G14G25G02G19G32G12G29G06G24
  -1693267.24346  -1308494.13246  24460641.5814   24460642.8734   24460641.531
        41.0004         37.0004
 -17828490.99948 -13829350.65748  21543357.8554   21543362.4134   21543358.127
        53.0004         48.0004
 -16150997.05948 -12516045.43048  21403316.8804   21403316.4964   21403317.253
        53.0004         48.0004
  -3889944.48547  -2952909.67546  24127949.5284   24127948.4594   24127949.610
        43.0004         39.0004
  -2335402.36547  -1803361.80246  24257350.4074   24257355.2984   24257351.293
        45.0004         40.0004
 -24155207.95649 -18733339.63448  20116089.4804   20116090.5764   20116089.359
        56.0004         52.0004
 -16242180.63048 -12633228.92447  22618382.7224   22618386.9084   22618383.455
        49.0004         44.0004
 -12123685.58548  -9379149.99547  21998170.2704   21998173.5594   21998170.511
        52.0004         47.0004
 -16219820.57749 -12584452.99048  21626450.5404   21626455.5284   21626450.007
        54.0004         49.0004
 17 10 13  2  7  0.0000000  0  9G14G25G02G19G32G12G29G06G24
  -1707167.02446  -1319325.10846  24457994.6704   24457997.2874   24457995.364
        41.0004         36.0004
 -17893294.60748 -13879846.96448  21531026.2764   21531030.9254   21531026.328
        53.0004         48.0004
 -16176896.36648 -12536226.69748  21398389.0264   21398388.2364   21398389.382
        53.0004         48.0004
  -3783189.62947  -2869724.07746  24148263.8974   24148264.3674   24148265.228
        43.0004         39.0004
  -2310753.21347  -1784154.65446  24262041.7834   24262046.6234   24262040.637
        45.0004         40.0004
 -24155208.06249 -18733339.70448  20116089.6104   20116090.4654   20116089.642
        56.0004         52.0004
 -16329650.36748 -12701387.15547  22601739.1284   22601741.4934   22601739.303
        49.0004         44.0004
 -12082138.28748  -9346775.47147  22006076.0434   22006080.7934   22006076.475
        52.0004         47.0004
 -16139813.06649 -12522109.48548  21641676.3234   21641680.4794   21641676.311
        54.0004         49.0004
 17 10 13  2  7 30.0000000  0  9G14G25G02G19G32G12G29G06G24
  -1720538.83546  -1329744.64346  24455451.2404   24455452.6944   24455451.227
        41.0004         36.0004
 -17957862.25948 -13930159.40548  21518739.1184   21518744.2404   21518739.470
        53.0004         48.0004
 -16202288.75548 -12556012.95848  21393556.5354   21393555.8724   21393557.084
        53.0004         48.0004
  -3676378.96047  -2786494.98546  24168589.7904   24168590.0734   24168591.223
        44.0004         39.0004
  -2285596.60447  -1764552.10246  24266829.7374   24266832.5214   24266831.208
        45.0004         40.0004
 -24154853.81449 -18733063.65548  20116156.8904   20116157.8484   20116156.891
        56.0004         52.0004
 -16416866.11348 -12769347.45247  22585142.8034   22585143.9174   22585142.329
        49.0004         44.0004
 -12040030.16248  -9313963.92947  22014088.8974   22014093.2044   22014088.043
        52.0004         47.0004
 -16059415.18549 -12459461.80448  21656974.6904   21656979.3374   21656974.278
        54.0004         49.0004
 17 10 13  2  8  0.0000000  0  9G14G25G02G19G32G12G29G06G24
  -1733387.30046  -1339756.41546  24453005.9324   24453007.6244   24453008.368
        41.0004         36.0004
 -18022197.24648 -13980290.55548  21506496.6314   21506500.8834   21506496.774
        53.0004         48.0004
 -16227177.95348 -12575407.12748  21388820.2834   21388819.5154   21388820.693
        53.0004         48.0004
  -3569518.77047  -2703227.31046  24188923.6314   24188925.0914   24188924.375
        44.0004         39.0004
  -2259938.66047  -1744558.92146  24271711.0454   24271714.0454   24271710.116
        44.0004         39.0004
 -24154149.24949 -18732514.63848  20116290.9794   20116291.7454   20116291.169
        56.0004         52.0004
 -16503831.13148 -12837112.39247  22568593.9414   22568596.2844   22568594.288
        49.0004         44.0004
 -11997367.29848  -9280720.13147  22022207.1954   22022211.2624   22022207.075
        52.0004         47.0004
 -15978633.93249 -12396515.37648  21672347.6164   21672351.5484   21672347.012
        54.0004         49.0004
 17 10 13  2  8 30.0000000  0  9G14G25G02G19G32G12G29G06G24
  -1745706.65046  -1349355.91446  24450662.0954   24450663.2964   24450662.990
        41.0004         36.0004
 -18086292.54848 -14030234.93748  21494299.7174   21494304.3774   21494300.026
        53.0004         49.0004
 -16251557.43548 -12594404.11548  21384180.9084   21384180.7844   21384181.365
        53.0004         49.0004
  -3462605.25747  -2619918.06646  24209269.1764   24209269.7484   24209269.614
        44.0004         39.0004
  -2233775.27047  -1724171.86146  24276690.9274   24276694.8534   24276689.181
        44.0004         40.0004
 -24153088.42549 -18731688.02048  20116492.7594   20116493.5074   20116492.418
        56.0004         52.0004
 -16590539.36048 -12904677.22447  22552093.4274   22552096.1134   22552093.387
        49.0004         44.0004
 -11954145.59948  -9247040.86947  22030432.3164   22030436.2384   22030431.669
        51.0004         47.0004
 -15897465.42149 -12333267.19448  21687793.3354   21687797.8244   21687792.962
        54.0004         49.0004
 17 10 13  2  9  0.0000000  0  9G14G25G02G19G32G12G29G06G24
  -1757502.08146  -1358547.13646  24448417.2454   24448418.1424   24448417.312
        41.0004         36.0004
 -18150152.19148 -14079995.68848  21482148.0064   21482152.5654   21482148.204
        53.0004         48.0004
 -16275432.26248 -12613007.86248  21379638.1674   21379637.2414   21379638.618
        53.0004         49.0004
  -3355645.64447  -2536572.89546  24229621.9204   24229623.0414   24229622.834
        44.0004         39.0004
  -2207113.27747  -1703396.29446  24281763.7904   24281767.3044   24281763.258
        45.0004         40.0004
 -24151676.17149 -18730587.55848  20116762.0174   20116762.2324   20116762.046
        56.0004         52.0004
 -16676994.68448 -12972044.98947  22535640.6254   22535643.9044   22535640.041
        49.0004         44.0004
 -11910371.93448  -9212931.51147  22038762.3924   22038766.3244   22038762.168
        51.0004         47.0004
 -15815916.78149 -12269722.82148  21703311.7804   21703315.8764   21703311.658
        54.0004         49.0004
 17 10 13  2  9 30.0000000  0  9G14G25G02G19G32G12G29G06G24
  -1768772.24846  -1367329.04846  24446272.6294   24446275.3094   24446273.613
        41.0004         37.0004
 -18213773.76148 -14129570.92748  21470041.0944   21470045.6314   21470041.326
        53.0004         49.0004
 -16298800.23348 -12631216.65048  21375191.2244   21375190.4144   21375192.051
        53.0004         49.0004
  -3248640.37247  -2453192.16846  24249984.6774   24249984.9094   24249985.833
        44.0004         39.0004
  -2179953.19947  -1682232.58946  24286932.3044   24286936.1614   24286932.831
        45.0004         40.0004
 -24149910.86349 -18729211.99148  20117097.8464   20117098.1604   20117097.780
        56.0004         52.0004
 -16763194.73648 -13039213.85447  22519237.9554   22519240.4034   22519239.325
        49.0004         44.0004
 -11866046.79348  -9178392.42247  22047195.8834   22047200.7094   22047196.155
        51.0004         47.0004
 -15733989.73349 -12205883.56548  21718902.0214   21718906.0104   21718902.036
        54.0004         49.0004
 17 10 13  2 10  0.0000000  0  9G14G25G02G19G32G12G29G06G24
  -1779516.22246  -1375700.95746  24444227.5694   24444230.4864   24444227.622
        41.0004         36.0004
 -18277155.04048 -14178958.93248  21457979.8684   21457984.3744   21457980.302
        53.0004         49.0004
 -16321659.88848 -12649029.35748  21370841.0634   21370840.7874   21370842.118
        53.0004         49.0004
  -3141590.04747  -2369776.32746  24270355.1084   24270356.0704   24270356.598
        44.0004         39.0004
  -2152295.62947  -1660681.22946  24292196.1324   24292198.9084   24292194.414
        45.0004         40.0004
 -24147791.33849 -18727560.40548  20117500.9924   20117501.2674   20117501.489
        56.0004         51.0004
 -16849137.93848 -13106182.55347  22502883.0434   22502885.7204   22502883.116
        49.0004         44.0004
 -11821170.83248  -9143424.13547  22055735.3024   22055740.0444   22055735.527
        51.0004         47.0004
 -15651685.15748 -12141750.13848  21734563.7144   21734567.9224   21734563.206
        53.0004         49.0004
 17 10 13  2 10 30.0000000  0  9G14G25G02G19G32G12G29G06G24
  -1789734.91146  -1383663.57246  24442280.9494   24442285.8284   24442283.684
        41.0004         36.0004
 -18340295.54748 -14228159.31348  21445964.8104   21445969.2774   21445964.497
        53.0004         49.0004
 -16344011.54548 -12666446.22748  21366587.5854   21366586.8664   21366588.184
        53.0004         49.0004
  -3034497.48047  -2286327.59346  24290735.5474   24290735.3554   24290736.801
        43.0004         39.0004
  -2124143.13547  -1638744.22946  24297550.8534   24297556.3734   24297549.968
        45.0004         40.0004
 -24145317.26049 -18725632.53848  20117971.8254   20117972.7314   20117971.747
        56.0004         52.0004
 -16934824.18348 -13172951.04147  22486577.3794   22486580.3004   22486576.792
        49.0004         44.0004
 -11775746.57748  -9108028.60247  22064379.7474   22064383.7354   22064380.354
        51.0004         46.0004
 -15569006.10048 -12077324.90348  21750296.3664   21750300.8804   21750296.102
        53.0004         48.0004
 17 10 13  2 11  0.0000000  0  9G14G25G02G19G32G12G29G06G24
  -1799427.80746  -1391216.50846  24440437.5204   24440441.6844   24440439.323
        41.0004         36.0004
 -18403193.23648 -14277170.48248  21433995.3984   21434000.2764   21433995.311
        53.0004         49.0004
 -16365853.58848 -12683465.98548  21362432.0794   21362430.0714   21362432.600
        53.0004         49.0004
  -2927363.84147  -2202846.83946  24311122.6134   24311122.3854   24311123.488
        43.0004         38.0004
  -2095496.58147  -1616422.28146  24303001.9234   24303006.3714   24303000.754
        44.0004         40.0004
 -24142487.85849 -18723427.80648  20118510.3904   20118510.9144   20118510.115
        56.0004         52.0004
 -17020251.89748 -13239518.07247  22470320.8844   22470323.6654   22470321.273
        49.0004         44.0004
 -11729774.94548  -9072206.54147  22073127.8384   22073132.6274   22073128.590
        51.0004         46.0004
 -15485953.45448 -12012608.57148  21766101.8424   21766105.2454   21766101.780
        53.0004         48.0004
 17 10 13  2 11 30.0000000  0  9G14G25G02G19G32G12G29G06G24
  -1808594.83546  -1398359.65346  24438695.6874   24438696.6734   24438694.297
        41.0004         37.0004
 -18465846.94648 -14325991.54448  21422072.8564   21422077.2774   21422073.315
        53.0004         49.0004
 -16387185.59848 -12700088.30948  21358372.0984   21358370.9884   21358372.400
        53.0004         49.0004
  -2820190.52547  -2119335.15646  24331515.5464   24331516.3604   24331518.063
        43.0004         38.0004
  -2066357.75247  -1593716.71846  24308548.5744   24308552.9634   24308547.538
        44.0004         40.0004
 -24139302.86249 -18720945.98648  20119116.4784   20119116.7194   20119116.553
        56.0004         52.0004
 -17105420.06048 -13305882.86247  22454114.8534   22454116.3664   22454114.790
        49.0004         44.0004
 -11683257.71348  -9035959.33447  22081980.1494   22081984.1484   22081980.313
        51.0004         47.0004
 -15402530.32748 -11947603.54548  21781976.2184   21781980.4034   21781976.127
        53.0004         48.0004
 17 10 13  2 12  0.0000000  0  9G14G25G02G19G32G12G29G06G24
  -1817236.90947  -1405093.70846  24437051.1494   24437051.5224   24437052.453
        42.0004         37.0004
 -18528255.79148 -14374621.80948  21410197.0174   21410201.5934   21410197.629
        53.0004         49.0004
 -16408007.34849 -12716313.03948  21354409.2124   21354409.1514   21354409.661
        54.0004         49.0004
  -2712980.29647  -2035794.70146  24351917.2694   24351919.1664   24351918.193
        43.0004         39.0004
  -2036728.86947  -1570629.28446  24314185.8394   24314190.1904   24314185.099
        44.0004         40.0004
 -24135762.06749 -18718186.91948  20119789.6874   20119790.5534   20119789.184
        56.0004         52.0004
 -17190328.33348 -13372045.13347  22437956.5164   22437960.4364   22437956.571
        49.0004         44.0004
 -11636197.04748  -8999288.69247  22090934.8014   22090939.3104   22090935.382
        51.0004         46.0004
 -15318739.44148 -11882311.95148  21797920.8374   21797925.7374   21797920.543
        53.0004         48.0004
 17 10 13  2 12 30.0000000  0  9G14G25G02G19G32G12G29G06G24
  -1825353.82846  -1411418.56346  24435505.8414   24435507.7154   24435506.003
        41.0004         37.0004
 -18590418.25648 -14423060.07848  21398367.4344   21398372.1664   21398367.935
        53.0004         49.0004
 -16428318.20549 -12732139.66948  21350544.6104   21350544.1164   21350545.120
        54.0004         49.0004
  -2605734.60547  -1952226.63746  24372326.1614   24372325.6764   24372326.966
        43.0004         39.0004
  -2006611.35347  -1547161.09846  24319918.3484   24319921.3774   24319918.254
        44.0004         40.0004
 -24131864.81949 -18715150.09648  20120531.5474   20120532.5654   20120531.555
        56.0004         52.0004
 -17274975.39648 -13438003.87447  22421849.8434   22421851.9054   22421850.369
        49.0004         44.0004
 -11588594.49248  -8962195.78647  22099994.1994   22099998.3094   22099994.144
        51.0004         46.0004
 -15234582.64848 -11816735.23348  21813935.0954   21813940.5874   21813934.466
        53.0004         49.0004
 17 10 13  2 13  0.0000000  0  9G14G25G02G19G32G12G29G06G24
  -1832943.65446  -1417332.73746  24434063.1884   24434061.5744   24434062.198
        41.0004         36.0004
 -18652331.28648 -14471303.98548  21386586.0704   21386590.4934   21386586.481
        53.0004         49.0004
 -16448116.37549 -12747566.79548  21346777.3204   21346776.7124   21346777.432
        54.0004         49.0004
  -2498452.73547  -1868630.36246  24392741.5784   24392741.8294   24392741.837
        43.0004         39.0004
  -1976005.20447  -1523312.19946  24325742.4414   24325746.5144   24325741.681
        45.0004         40.0004
 -24127609.06249 -18711833.91848  20121341.3604   20121342.1074   20121340.997
        56.0004         52.0004
 -17359358.95748 -13503757.27647  22405790.6314   22405792.9804   22405791.399
        49.0004         44.0004
 -11540450.00948  -8924680.59247  22109156.1964   22109158.7334   22109155.603
        51.0004         46.0004
 -15150060.02548 -11750873.46748  21830019.5904   21830024.1344   21830020.064
        53.0004         48.0004
 17 10 13  2 13 30.0000000  0  9G14G25G02G19G32G12G29G06G24
  -1840010.74546  -1422839.58346  24432715.2414   24432717.3374   24432718.486
        41.0004         36.0004
 -18713997.76249 -14519355.77748  21374852.1304   21374856.0704   21374852.381
        54.0004         49.0004
 -16467404.84649 -12762596.76048  21343106.4234   21343105.9784   21343106.930
        54.0004         49.0004
  -2391141.01547  -1785010.85346  24413161.4904   24413161.7024   24413163.257
        43.0004         38.0004
  -1944916.45447  -1499087.21046  24331657.2104   24331661.7364   24331655.652
        44.0004         39.0004
 -24122998.68149 -18708241.40548  20122218.7934   20122219.3314   20122218.731
        56.0004         51.0004
 -17443481.79048 -13569307.52347  22389783.9044   22389785.0704   22389783.333
        49.0004         45.0004
 -11491769.53548  -8886747.76047  22118419.0254   22118422.8204   22118418.885
        51.0004         46.0004
 -15065177.93148 -11684731.58748  21846171.9604   21846176.2764   21846171.360
        53.0004         48.0004
 17 10 13  2 14  0.0000000  0  9G14G25G02G19G32G12G29G06G24
  -1846551.43346  -1427936.24946  24431472.6774   24431474.1694   24431471.901
        41.0004         37.0004
 -18775412.16149 -14567211.14148  21363164.7144   21363169.3194   21363165.085
        54.0004         49.0004
 -16486178.97748 -12777225.94148  21339533.6304   21339533.4244   21339534.495
        53.0004         49.0004
  -2283797.01847  -1701366.18646  24433589.5574   24433588.8274   24433590.432
        43.0004         38.0004
  -1913342.60047  -1474484.23146  24337666.0244   24337669.3204   24337665.749
        44.0004         39.0004
 -24118028.63349 -18704368.63548  20123164.2604   20123164.7084   20123163.833
        56.0004         51.0004
 -17527339.05348 -13634650.82047  22373826.5584   22373828.0764   22373826.455
        49.0004         45.0004
 -11442550.72048  -8848395.43647  22127785.3064   22127789.3334   22127785.378
        51.0004         47.0004
 -14979935.30748 -11618308.76948  21862393.0954   21862397.5854   21862392.725
        53.0004         48.0004
 17 10 13  2 14 30.0000000  0  9G14G25G02G19G32G12G29G06G24
  -1852567.96947  -1432624.44446  24430328.2924   24430330.1084   24430329.666
        42.0004         37.0004
 -18836575.57849 -14614870.93448  21351525.4534   21351530.4154   21351526.449
        54.0004         49.0004
 -16504440.86849 -12791455.95648  21336059.3244   21336058.3214   21336059.548
        54.0004         49.0004
  -2176424.54447  -1617699.31346  24454021.2814   24454020.8354   24454023.292
        43.0004         38.0004
  -1881287.90747  -1449506.58646  24343766.0574   24343769.6694   24343766.081
        44.0004         39.0004
 -24112701.17349 -18700217.36948  20124178.3044   20124179.0884   20124178.330
        56.0004         52.0004
 -17610932.42648 -13699788.50447  22357919.3054   22357921.3784   22357918.614
        50.0004         45.0004
 -11392797.72748  -8809626.85747  22137252.6634   22137257.0634   22137252.518
        51.0004         47.0004
 -14894335.74148 -11551607.81848  21878681.5094   21878686.8174   21878681.034
        53.0004         48.0004
 17 10 13  2 15  0.0000000  0  9G14G25G02G19G32G12G29G06G24
  -1858060.01147  -1436903.96046  24429282.1934   24429284.5604   24429281.563
        42.0004         37.0004
 -18897485.82149 -14662333.44548  21339934.5014   21339939.5254   21339934.835
        54.0004         49.0004
 -16522189.10449 -12805285.73948  21332681.7504   21332680.7584   21332682.214
        54.0004         49.0004
  -2069024.47847  -1534010.93746  24474458.3224   24474459.8054   24474459.456
        43.0004         38.0004
  -1848753.30547  -1424154.99046  24349956.4544   24349960.5454   24349956.832
        44.0004         39.0004
 -24107015.02549 -18695786.60448  20125260.4144   20125261.0844   20125259.980
        56.0004         52.0004
 -17694260.15548 -13764719.19147  22342061.6384   22342063.9294   22342061.591
        50.0004         45.0004
 -11342511.52948  -8770442.80847  22146822.6304   22146826.0794   22146822.811
        51.0004         47.0004
 -14808381.23948 -11484630.28448  21895038.4814   21895043.3404   21895038.235
        53.0004         48.0004
 17 10 13  2 15 30.0000000  0  9G14G25G02G19G32G12G29G06G24
  -1863027.29247  -1440774.57846  24428337.3584   24428337.2214   24428337.904
        42.0004         37.0004
 -18958141.09149 -14709597.28048  21328392.5524   21328397.2534   21328392.989
        54.0004         49.0004
 -16539422.82348 -12818714.59748  21329402.0314   21329401.2824   21329403.224
        53.0004         49.0004
  -1961597.89547  -1450301.92146  24494901.2954   24494901.5304   24494902.198
        43.0004         38.0004
  -1815740.11047  -1398430.48046  24356240.1964   24356243.5064   24356239.641
        44.0004         40.0004
 -24100969.09749 -18691075.48948  20126410.9304   20126411.7004   20126410.774
        56.0004         51.0004
 -17777320.71348 -13829441.69147  22326256.8874   22326257.3834   22326256.511
        50.0004         45.0004
 -11291693.45648  -8730844.28347  22156492.3244   22156496.8324   22156492.261
        51.0004         47.0004
 -14722073.67948 -11417377.64948  21911462.9634   21911467.3144   21911462.471
        53.0004         48.0004
 17 10 13  2 16  0.0000000  0  9G14G25G02G19G32G12G29G06G24
  -1867471.67947  -1444237.76946  24427491.2834   24427493.5614   24427490.316
        42.0004         37.0004
 -19018541.92449 -14756662.85348  21316899.1244   21316903.2164   21316899.576
        54.0004         49.0004
 -16556143.63548 -12831743.78048  21326220.0604   21326219.4524   21326220.523
        53.0004         49.0004
  -1854148.51847  -1366575.14646  24515346.8084   24515346.4854   24515348.627
        42.0004         37.0004
  -1782252.20247  -1372336.00346  24362612.6174   24362616.4394   24362612.299
        45.0004         40.0004
 -24094564.84449 -18686085.15748  20127629.2924   20127630.2044   20127629.512
        56.0004         51.0004
 -17860114.95148 -13893956.65947  22310501.2424   22310502.1104   22310500.987
        50.0004         45.0004
 -11240347.23648  -8690834.23847  22166263.4774   22166266.7204   22166263.438
        51.0004         46.0004
 -14635416.79948 -11349852.82048  21927953.2154   21927957.6644   21927953.122
        53.0004         48.0004
 17 10 13  2 16 30.0000000  0  9G14G25G02G19G32G12G29G06G24
  -1871390.50447  -1447291.38646  24426746.5284   24426748.4954   24426746.469
        42.0004         37.0004
 -19078683.83349 -14803526.66148  21305453.5944   21305458.8734   21305454.697
        54.0004         49.0004
 -16572347.92148 -12844370.48648  21323136.6644   21323135.7534   21323137.157
        53.0004         49.0004
  -1746674.86947  -1282829.44546  24535799.5794   24535798.1034   24535800.772
        42.0004         37.0004
  -1748288.12747  -1345870.51646  24369075.4744   24369078.8154   24369075.274
        45.0004         40.0004
 -24087798.91249 -18680813.00148  20128916.6904   20128917.4594   20128916.424
        56.0004         51.0004
 -17942639.12148 -13958261.18447  22294797.4414   22294799.2174   22294796.395
        50.0004         45.0004
 -11188471.57948  -8650411.65247  22176134.7944   22176139.4644   22176134.038
        51.0004         46.0004
 -14548409.93648 -11282055.26848  21944509.4284   21944514.3014   21944509.034
        53.0004         48.0004
 17 10 13  2 17  0.0000000  0  9G14G25G02G19G32G12G29G06G24
  -1874788.21946  -1449938.96546  24426097.7274   24426101.4044   24426100.119
        41.0004         37.0004
 -19138569.58649 -14850190.88448  21294058.1854   21294062.3154   21294057.873
        54.0004         49.0004
 -16588039.40048 -12856597.59348  21320150.5264   21320149.5904   21320151.007
        53.0004         49.0004
  -1639182.68047  -1199069.31446  24556254.7974   24556255.6944   24556256.882
        42.0004         37.0004
  -1713853.97747  -1319038.73346  24375628.1964   24375631.1464   24375626.636
        44.0004         39.0004
 -24080674.72449 -18675261.68648  20130272.7924   20130273.2254   20130273.239
        56.0004         51.0004
 -18024896.36448 -14022357.72247  22279143.9454   22279146.3774   22279144.453
        50.0004         45.0004
 -11136072.49748  -8609581.18947  22186107.1034   22186110.5344   22186106.280
        51.0004         47.0004
 -14461059.47948 -11213989.98648  21961132.2544   21961136.3164   21961131.893
        53.0004         48.0004
 17 10 13  2 17 30.0000000  0  9G14G25G02G19G32G12G29G06G24
  -1877660.96246  -1452177.47146  24425553.6014   24425553.6814   24425552.896
        41.0004         37.0004
 -19198193.43849 -14896651.01648  21282711.9454   21282716.1624   21282712.215
        54.0004         49.0004
 -16603213.29848 -12868421.39448  21317262.9204   21317262.1064   21317263.618
        53.0004         49.0004
  -1531668.96547  -1115292.38746  24576714.8054   24576713.1534   24576715.657
        42.0004         37.0004
  -1678947.21447  -1291838.68546  24382269.8504   24382274.2074   24382270.199
        44.0004         39.0004
 -24073187.69249 -18669427.62848  20131697.3924   20131697.8344   20131697.381
        56.0004         51.0004
 -18106881.31548 -14086242.08347  22263543.0094   22263543.8794   22263542.154
        50.0004         45.0004
 -11083147.48348  -8568340.91147  22196177.9714   22196182.0334   22196177.731
        51.0004         47.0004
 -14373363.38448 -11145655.37248  21977820.7454   21977824.7424   21977820.930
        53.0004         48.0004
 17 10 13  2 18  0.0000000  0  9G14G25G02G19G32G12G29G06G24
  -1880013.87846  -1454010.92946  24425101.9464   24425106.4114   24425104.392
        41.0004         37.0004
 -19257559.12449 -14942909.97848  21271414.8984   21271419.7734   21271415.539
        54.0004         49.0004
 -16617874.27748 -12879845.51348  21314473.2654   21314472.3244   21314473.906
        53.0004         49.0004
  -1424140.29347  -1031503.80646  24597176.1494   24597176.6594   24597177.282
        42.0004         37.0004
  -1643574.84247  -1264275.83946  24389002.3944   24389006.1284   24389003.282
        44.0004         39.0004
 -24065342.27349 -18663314.30948  20133190.5164   20133191.0574   20133190.171
        56.0004         51.0004
 -18188598.71948 -14149917.95647  22247992.3594   22247993.9724   22247992.356
        50.0004         45.0004
 -11029703.49648  -8526696.24747  22206348.0194   22206351.4134   22206347.649
        52.0004         47.0004
 -14285328.98948 -11077057.15848  21994572.8784   21994577.1694   21994572.917
        53.0004         48.0004
 17 10 13  2 18 30.0000000  0  9G14G25G02G19G32G12G29G06G24
  -1881842.05646  -1455435.51046  24424756.6704   24424758.3024   24424757.117
        41.0004         37.0004
 -19316659.95249 -14988962.55848  21260168.4924   21260172.8424   21260168.981
        54.0004         49.0004
 -16632016.71448 -12890865.57848  21311781.9604   21311780.9154   21311782.946
        53.0004         49.0004
  -1316593.14547   -947700.79646  24617641.8774   24617641.7174   24617643.318
        42.0004         37.0004
  -1607733.47347  -1236347.57546  24395822.3434   24395826.3344   24395823.916
        44.0004         39.0004
 -24057132.82649 -18656917.34248  20134752.8224   20134753.2744   20134752.862
        56.0004         51.0004
 -18270042.22048 -14213380.40247  22232495.0914   22232495.6164   22232495.244
        50.0004         45.0004
 -10975737.18548  -8484644.57247  22216616.9454   22216620.8954   22216616.561
        51.0004         46.0004
 -14196952.97948 -11008192.74548  22011389.5014   22011394.8264   22011388.981
        53.0004         48.0004
 17 10 13  2 19  0.0000000  0  9G14G25G02G19G32G12G29G06G24
  -1883152.30446  -1456456.46346  24424507.0624   24424509.8264   24424508.158
        41.0004         36.0004
 -19375500.98149 -15034812.70148  21248971.6374   21248975.4854   21248972.253
        54.0004         49.0004
 -16645646.61548 -12901486.26648  21309187.8084   21309187.0954   21309188.261
        53.0004         49.0004
  -1209035.48346   -863889.62046  24638110.5654   24638107.9774   24638110.767
        41.0004         37.0004
  -1571431.53347  -1208060.38846  24402731.2084   24402734.5234   24402729.884
        44.0004         39.0004
 -24048565.43149 -18650241.44048  20136382.6434   20136383.6224   20136382.561
        56.0004         51.0004
 -18351216.54448 -14276633.11247  22217048.4934   22217048.5204   22217048.458
        50.0004         46.0004
 -10921256.86148  -8442192.37147  22226983.8494   22226988.7124   22226983.292
        51.0004         46.0004
 -14108244.83948 -10939069.52448  22028270.6604   22028274.7644   22028270.444
        53.0004         48.0004
 17 10 13  2 19 30.0000000  0  9G14G25G02G19G32G12G29G06G24
  -1883937.06146  -1457068.01646  24424357.5974   24424360.1204   24424358.667
        41.0004         37.0004
 -19434072.87749 -15080453.13248  21237825.7404   21237830.0584   21237826.189
        54.0004         49.0004
 -16658755.79648 -12911701.19348  21306693.7194   21306693.0744   21306694.598
        53.0004         49.0004
  -1101461.01346   -780065.34446  24658579.2884   24658576.7034   24658580.716
        41.0004         36.0004
  -1534662.97347  -1179409.58346  24409726.5464   24409731.5884   24409725.672
        44.0004         39.0004
 -24039631.45449 -18643279.89948  20138083.1704   20138083.6334   20138083.093
        56.0004         51.0004
 -18432113.60948 -14339669.76747  22201652.7944   22201654.5684   22201653.014
        50.0004         45.0004
 -10866256.52348  -8399334.97147  22237450.5724   22237454.6214   22237450.561
        51.0004         46.0004
 -14019197.85648 -10869682.25648  22045215.8724   22045219.9914   22045215.326
        52.0004         48.0004
 17 10 13  2 20  0.0000000  0  9G14G25G02G19G32G12G29G06G24
  -1884203.10346  -1457275.30746  24424306.8474   24424309.7704   24424308.415
        41.0004         37.0004
 -19492380.65449 -15125887.74748  21226730.1074   21226734.9284   21226730.287
        54.0004         49.0004
 -16671350.61848 -12921515.32548  21304296.5904   21304296.4754   21304297.415
        53.0004         49.0004
   -993877.61346   -696234.15146  24679052.8194   24679052.6974   24679053.519
        40.0004         36.0004
  -1497436.17747  -1150401.73846  24416810.2454   24416815.0904   24416811.789
        44.0004         39.0004
 -24030336.93449 -18636037.41248  20139851.6094   20139852.0814   20139851.182
        56.0004         51.0004
 -18512738.87548 -14402494.64847  22186310.3924   22186312.2854   22186310.532
        50.0004         46.0004
 -10810744.55448  -8356078.87447  22248014.1604   22248018.4024   22248013.471
        51.0004         46.0004
 -13929821.90148 -10800038.65748  22062222.6754   22062228.4124   22062222.270
        52.0004         48.0004
 17 10 13  2 20 30.0000000  0  9G14G25G02G19G32G12G29G06G24
  -1883948.16946  -1457076.65946  24424356.4474   24424357.6904   24424355.769
        41.0004         37.0004
 -19550420.23749 -15171113.38048  21215685.2284   21215689.4334   21215685.618
        54.0004         49.0004
 -16683427.58849 -12930925.94148  21301999.0464   21301997.9794   21301999.014
        54.0004         49.0004
   -886283.91746   -612394.93445  24699526.3224   24699524.5444   24699529.583
        40.0004         35.0004
  -1459750.41747  -1121036.23446  24423982.2344   24423986.2584   24423981.550
        44.0004         39.0004
 -24020679.26449 -18628511.95548  20141689.7044   20141689.9754   20141689.635
        56.0004         52.0004
 -18593088.84448 -14465104.99647  22171020.4314   22171022.1364   22171020.396
        50.0004         46.0004
 -10754720.18948  -8312423.51047  22258675.0794   22258678.8914   22258674.681
        51.0004         46.0004
 -13840116.10148 -10730138.04348  22079293.5144   22079298.1954   22079293.615
        52.0004         48.0004
 17 10 13  2 21  0.0000000  0  9G14G25G02G19G32G12G29G06G24
  -1883163.42246  -1456465.18246  24424505.8954   24424506.5874   24424506.062
        41.0004         36.0004
 -19608180.85049 -15216121.64148  21204694.4424   21204698.0864   21204694.646
        54.0004         49.0004
 -16694977.48648 -12939925.84748  21299800.9074   21299800.2454   21299801.412
        53.0004         49.0004
 -22834552.15046 -17714941.59545  24720001.4884   24720004.5874   24720006.504
        39.0004         34.0004
  -1421598.38847  -1091307.36646  24431242.1424   24431246.5794   24431241.819
        44.0004         39.0004
 -24010647.88649 -18620695.29348  20143598.4194   20143598.7684   20143598.252
        56.0004         51.0004
 -18673153.27348 -14527492.84247  22155784.7704   22155787.4334   22155785.178
        51.0004         46.0004
 -10698176.02148  -8268363.11647  22269435.9054   22269438.6674   22269434.923
        51.0004         46.0004
 -13750073.30648 -10659974.83748  22096428.9204   22096432.7914   22096428.379
        52.0004         48.0004
 17 10 13  2 21 30.0000000  0  8G14G25G02G32G12G29G06G24
  -1881869.56846  -1455456.99446  24424752.4764   24424752.4764   24424752.993
        41.0004         36.0004
 -19665681.13149 -15260927.04648  21193752.0214   21193755.9414   21193752.922
        54.0004         49.0004
 -16706020.18948 -12948530.53548  21297699.0334   21297698.7474   21297699.332
        53.0004         49.0004
  -1383002.07347  -1061232.32646  24438587.9204   24438590.0914   24438585.964
        43.0004         38.0004
 -24000262.60049 -18612602.86648  20145575.1374   20145575.3614   20145574.856
        56.0004         52.0004
 -18752951.52948 -14589673.28647  22140600.2944   22140601.7214   22140601.111
        51.0004         46.0004
 -10641134.12348  -8223914.87947  22280289.8074   22280293.5694   22280289.846
        50.0004         46.0004
 -13659715.80048 -10589566.38348  22113623.0394   22113627.0084   22113622.854
        53.0004         48.0004
 17 10 13  2 22  0.0000000  0  8G14G25G02G32G12G29G06G24
  -1880055.33946  -1454043.33246  24425097.6894   24425099.1064   24425097.008
        41.0004         37.0004
 -19722908.09549 -15305519.47048  21182862.1964   21182866.7604   21182862.738
        54.0004         49.0004
 -16716543.67348 -12956730.64148  21295696.6344   21295696.4824   21295697.418
        53.0004         49.0004
  -1343951.89947  -1030803.66946  24446019.1124   24446023.1334   24446019.607
        43.0004         39.0004
 -23989511.56349 -18604225.43148  20147620.6874   20147621.1554   20147620.764
        56.0004         51.0004
 -18832470.93848 -14651636.44247  22125467.4124   22125470.0384   22125468.169
        51.0004         46.0004
 -10583584.87948  -8179071.30247  22291241.3384   22291245.3884   22291241.251
        51.0004         46.0004
 -13569034.63148 -10518905.74248  22130878.6774   22130883.8734   22130878.643
        52.0004         48.0004
 17 10 13  2 22 30.0000000  0  8G14G25G02G32G12G29G06G24
  -1877722.70546  -1452225.67646  24425540.2364   24425542.4314   24425539.646
        41.0004         37.0004
 -19779861.97949 -15349899.11348  21172024.4784   21172028.6624   21172024.804
        54.0004         49.0004
 -16726549.49848 -12964527.36848  21293792.7344   21293792.2484   21293793.639
        53.0004         49.0004
  -1304451.59047  -1000024.26946  24453534.5304   24453538.9184   24453534.885
        43.0004         39.0004
 -23978396.05649 -18595563.99348  20149735.5174   20149736.3184   20149735.659
        56.0004         51.0004
 -18911712.42648 -14713383.03847  22110388.1024   22110389.3724   22110388.463
        50.0004         46.0004
 -10525531.95948  -8133835.27147  22302287.5844   22302292.6874   22302287.793
        51.0004         46.0004
 -13478033.95048 -10447996.12648  22148195.7664   22148200.2004   22148195.345
        52.0004         48.0004
 17 10 13  2 23  0.0000000  0  8G14G25G02G32G12G29G06G24
  -1874873.27946  -1450005.36646  24426083.1694   24426085.1964   24426082.319
        41.0004         36.0004
 -19836542.26149 -15394065.55148  21161238.2674   21161242.3364   21161238.470
        54.0004         49.0004
 -16736038.26148 -12971921.19848  21291987.1514   21291986.3934   21291987.611
        53.0004         49.0004
  -1264504.20947   -968896.45346  24461136.1804   24461141.3694   24461137.767
        44.0004         39.0004
 -23966916.57349 -18586618.93948  20151920.2714   20151920.8394   20151920.515
        56.0004         51.0004
 -18990676.18948 -14774913.22947  22095362.1944   22095363.5584   22095361.879
        50.0004         46.0004
 -10466978.27648  -8088209.03247  22313430.1974   22313434.8244   22313429.620
        51.0004         46.0004
 -13386716.48148 -10376839.65748  22165572.8774   22165577.6164   22165572.596
        52.0004         48.0004
 17 10 13  2 23 30.0000000  0  8G14G25G02G32G12G29G06G24
  -1871506.97846  -1447382.27346  24426722.7694   24426727.6074   24426724.094
        41.0004         36.0004
 -19892946.80649 -15438017.13048  21150504.9904   21150508.7884   21150505.771
        54.0004         49.0004
 -16745009.12948 -12978911.46648  21290279.6454   21290278.9094   21290280.475
        53.0004         49.0004
  -1224110.94047   -937421.20746  24468823.4464   24468826.9044   24468824.877
        44.0004         39.0004
 -23955072.32149 -18577389.64448  20154174.0004   20154174.7324   20154173.638
        56.0004         51.0004
 -19069360.36748 -14836225.56047  22080388.9644   22080390.4404   22080389.411
        50.0004         46.0004
 -10407925.19248  -8042193.64847  22324668.7884   22324672.6334   22324668.567
        51.0004         46.0004
 -13295084.00248 -10305437.72847  22183009.9444   22183014.7584   22183009.797
        52.0004         47.0004
 17 10 13  2 24  0.0000000  0  8G14G25G02G32G12G29G06G24
  -1867623.97046  -1444356.56346  24427459.9804   24427464.3974   24427461.286
        41.0004         36.0004
 -19949073.97549 -15481752.58648  21139824.6604   21139828.5784   21139824.479
        54.0004         49.0004
 -16753461.89148 -12985498.02448  21288671.5794   21288670.9024   21288672.078
        53.0004         49.0004
  -1183273.70847   -905600.00846  24476593.6474   24476597.9564   24476593.573
        44.0004         39.0004
 -23942861.86749 -18567874.99848  20156497.9164   20156497.9024   20156497.743
        56.0004         51.0004
 -19147764.26648 -14897319.49347  22065469.1504   22065471.6314   22065468.891
        50.0004         46.0004
 -10348374.53348  -7995790.52847  22336000.7734   22336004.8224   22336000.138
        51.0004         46.0004
 -13203138.86848 -10233792.18447  22200506.4164   22200510.7004   22200506.264
        52.0004         47.0004
 17 10 13  2 24 30.0000000  0  8G14G25G02G32G12G29G06G24
  -1863225.37346  -1440929.11446  24428298.7734   24428300.9014   24428300.612
        41.0004         36.0004
 -20004922.49349 -15525270.89148  21129196.3914   21129200.5174   21129196.543
        54.0004         49.0004
 -16761396.36348 -12991680.71348  21287160.9814   21287161.0924   21287161.795
        53.0004         49.0004
  -1141994.82247   -873434.68246  24484449.0274   24484453.5684   24484449.171
        44.0004         39.0004
 -23930285.05249 -18558074.87348  20158890.8374   20158891.6234   20158890.672
        56.0004         51.0004
 -19225887.21648 -14958194.49347  22050602.0964   22050604.9724   22050602.908
        50.0004         46.0004
 -10288328.50148  -7949001.40047  22347426.6824   22347430.9574   22347426.327
        51.0004         46.0004
 -13110882.73448 -10161904.28447  22218062.2104   22218066.6764   22218062.311
        52.0004         47.0004
 17 10 13  2 25  0.0000000  0  8G14G25G02G32G12G29G06G24
  -1858311.74646  -1437100.31846  24429234.9314   24429234.8984   24429233.790
        41.0004         36.0004
 -20060491.10549 -15568571.09448  21118622.0374   21118626.0694   21118622.210
        54.0004         49.0004
 -16768812.68849 -12997459.66248  21285750.4374   21285749.7834   21285751.046
        54.0004         49.0004
  -1100276.62047   -840927.00246  24492387.8074   24492391.4034   24492387.929
        44.0004         39.0004
 -23917342.25649 -18547989.57748  20161353.9724   20161354.4074   20161354.025
        56.0004         52.0004
 -19303728.29448 -15018849.85947  22035790.4814   22035792.2824   22035789.876
        50.0004         46.0004
 -10227789.34748  -7901828.04347  22358946.4744   22358950.1824   22358946.795
        50.0004         45.0004
 -13018319.03148 -10089776.72547  22235676.0844   22235681.0824   22235675.967
        52.0004         47.0004
 17 10 13  2 25 30.0000000  0  8G14G25G02G32G12G29G06G24
  -1852883.00946  -1432870.14146  24430267.7814   24430270.9304   24430269.555
        41.0004         36.0004
 -20115777.67749 -15611651.52648  21108101.1364   21108105.4594   21108101.411
        54.0004         49.0004
 -16775710.08949 -13002834.23748  21284437.5074   21284437.3994   21284438.432
        54.0004         49.0004
  -1058120.39447   -808078.03546  24500410.3474   24500413.4704   24500409.438
        43.0004         38.0004
 -23904032.00849 -18537617.94748  20163886.4504   20163887.4534   20163886.397
        56.0004         52.0004
 -19381286.30548 -15079284.64247  22021031.0864   22021032.5234   22021031.486
        50.0004         46.0004
 -10166758.47748  -7854271.51147  22370559.7794   22370564.3734   22370559.704
        50.0004         45.0004
 -12925449.54448 -10017410.90847  22253349.3064   22253353.9554   22253349.338
        52.0004         47.0004
